price,types,address,latitude,longitude,date,beds,baths,sq.,bath,reception,receptions,bed,total_Beds,total_Baths,total_Receptions,FlatType,index
865000,2 bed flat for sale ,"Pages Walk, London SE1",51.495738,-0.081208,9/2/2021,2,2,840,0,0,0,0,2,2,0,flat,1
750000,3 bed detached house for sale ,"Park Road, Kenley CR8",51.320999,-0.108466,9/2/2021,3,0,0,1,1,0,0,3,1,1,detached house,2
419950,2 bed terraced house for sale ,"Anthony Road, London SE25",51.387405,-0.071903,9/2/2021,2,2,0,0,0,2,0,2,2,2,terraced house,3
1095000,3 bed flat for sale ,"Pages Walk, London SE1",51.495738,-0.081208,9/2/2021,3,2,968,0,0,0,0,3,2,0,flat,4
849995,4 bed semi-detached house for sale ,"Inchmery Road, London SE6",51.440248,-0.013402,9/2/2021,4,0,0,1,0,3,0,4,1,3,semi-detached house,5
3e+05,2 bed flat for sale ,"North Block, The Railstore, Kidman Close, Gidea Park, Romford RM2",51.584796,0.2138,9/2/2021,2,0,0,1,1,0,0,2,1,1,flat,6
625000,2 bed flat for sale ,"Holloway Road, London N7",51.550472,-0.109663,9/2/2021,2,2,0,0,1,0,0,2,2,1,flat,7
1450000,3 bed flat for sale ,"Netherhall Gardens, Hampstead, London NW3",51.552177,-0.177179,9/2/2021,3,2,0,0,1,0,0,3,2,1,flat,8
1750000,4 bed terraced house for sale ,"Offord Road, London N1",51.543645,-0.111717,9/2/2021,4,2,0,0,0,2,0,4,2,2,terraced house,9
465000,2 bed flat for sale ,"Purbrook Estate, Tower Bridge Road, London SE1",51.498665,-0.078751,9/2/2021,2,0,0,1,1,0,0,2,1,1,flat,10
525000,2 bed flat for sale ,"Hartington Road, London W4",51.481372,-0.274774,9/2/2021,2,0,589,1,1,0,0,2,1,1,flat,11
550000,3 bed flat for sale ,"Chrisp Street, London E14",51.514668,-0.014592,9/2/2021,3,2,0,0,1,0,0,3,2,1,flat,12
7e+05,2 bed flat for sale ,"Deveraux House, Duke Of Wellington Avenue, London SE18",51.4941,0.06686,9/2/2021,2,2,0,0,1,0,0,2,2,1,flat,13
1e+06,3 bed end terrace house for sale ,"Maple Grove, London W5",51.501308,-0.303982,9/2/2021,3,2,"1,167",0,0,2,0,3,2,2,end terrace house,14
670000,5 bed property for sale ,"Hawkhurst Way, New Malden KT3",51.396448,-0.269297,9/2/2021,5,2,0,0,0,2,0,5,2,2,property,15
299995,3 bed maisonette for sale ,"Dorrit Mews, Edmonton N18",51.615413,-0.073343,9/2/2021,3,0,0,1,1,0,0,3,1,1,maisonette,16
1175000,3 bed flat for sale ,"College Crescent, London NW3",51.545391,-0.175109,9/2/2021,3,2,0,0,1,0,0,3,2,1,flat,17
385000,2 bed flat for sale ,"Charter Court, 65B Bridge Street, Pinner HA5",51.595293,-0.384438,9/2/2021,2,0,0,1,1,0,0,2,1,1,flat,18
1100000,3 bed terraced house for sale ,"Derwent, Derby Road, London E9",51.537427,-0.046631,9/2/2021,3,2,872,0,1,0,0,3,2,1,terraced house,19
575000,2 bed flat for sale ,"South Lambeth Road, London SW8",51.479699,-0.123689,9/2/2021,2,0,0,1,1,0,0,2,1,1,flat,20
207500,1 bed property for sale ,"Uxbridge Road, Hatch End, Pinner HA5",51.606934,-0.375738,9/2/2021,0,0,0,1,1,0,1,1,1,1,property,21
550000,4 bed semi-detached house for sale ,"Rush Green Road, Romford RM7",51.564399,0.169995,9/2/2021,4,3,0,0,1,0,0,4,3,1,semi-detached house,22
330000,Studio for sale ,"Sailors House, New Aberfeldy Village, 16 Deauville Close E14",51.51287,-0.001802,9/2/2021,0,0,410,1,1,0,0,0,1,1,Studio,23
5e+05,2 bed maisonette for sale ,"Grosvenor Road, Finchley, London N3",51.606623,-0.197077,9/2/2021,2,0,0,1,1,0,0,2,1,1,maisonette,24
370000,3 bed terraced house for sale ,"Upton Road, Thornton Heath CR7",51.408071,-0.095708,9/2/2021,3,2,0,0,0,2,0,3,2,2,terraced house,25
1625000,5 bed detached house for sale ,"Homefield Road, Coulsdon CR5",51.299027,-0.112571,9/2/2021,5,2,0,0,0,3,0,5,2,3,detached house,26
3e+05,Studio for sale ,"Ripon Court, Royal Quay, 9 Dod Street E14",51.5141,-0.0265,9/2/2021,0,0,321,1,1,0,0,0,1,1,Studio,27
425000,1 bed flat for sale ,"Finchley Road, London NW3",51.543773,-0.175531,9/2/2021,0,0,0,1,1,0,1,1,1,1,flat,28
675000,2 bed terraced house for sale ,"Ridley Avenue, Ealing W13",51.499963,-0.319651,9/2/2021,2,2,724,0,0,0,0,2,2,0,terraced house,29
425000,3 bed semi-detached house for sale ,"Avenue Road, Erith DA8",51.4748,0.169201,9/2/2021,3,0,0,1,0,2,0,3,1,2,semi-detached house,30
4200000,3 bed flat for sale ,"Warrington Crescent, Little Venice, London W9",51.52548,-0.183816,9/2/2021,3,3,0,0,0,2,0,3,3,2,flat,31
875000,4 bed cottage for sale ,"Woodcote House, Wrythe Green Road, Carshalton SM5",51.371345,-0.168659,9/2/2021,4,0,0,1,0,3,0,4,1,3,cottage,32
2100000,5 bed terraced house for sale ,"Calthorpe Street, London WC1X",51.525904,-0.114175,9/2/2021,5,0,0,1,1,0,0,5,1,1,terraced house,33
280000,1 bed flat for sale ,"High Street, London E15",51.534179,-0.007061,9/2/2021,0,0,0,1,1,0,1,1,1,1,flat,34
499950,2 bed flat for sale ,"Florence Road, Finsbury Park, London N4",51.570999,-0.10965,9/2/2021,2,0,507,1,1,0,0,2,1,1,flat,35
1295000,2 bed flat for sale ,"Seymour Walk, Chelsea, London SW10",51.4856,-0.1819,9/2/2021,2,2,937,0,1,0,0,2,2,1,flat,36
850000,5 bed semi-detached house for sale ,"Pollards Hill North, Norbury SW16",51.404156,-0.122773,9/2/2021,5,2,0,0,0,0,0,5,2,0,semi-detached house,37
3e+05,1 bed flat for sale ,"Gifford Gardens, London W7",51.52293,-0.344969,9/2/2021,0,0,0,1,1,0,1,1,1,1,flat,38
2650000,2 bed flat for sale ,"Wimpole Street, Marylebone, London W1G",51.5195,-0.1486,9/2/2021,2,2,"1,597",0,1,0,0,2,2,1,flat,39
750000,3 bed semi-detached house for sale ,"Moorcroft Way, Pinner HA5",51.586167,-0.38462,9/2/2021,3,0,0,1,0,2,0,3,1,2,semi-detached house,40
895000,5 bed terraced house for sale ,"St Albans Road, Woodford Green, Essex IG8",51.600927,0.021322,9/2/2021,5,2,0,0,0,0,0,5,2,0,terraced house,41
5e+05,3 bed terraced house for sale ,"Dorchester Avenue, Palmers Green, London N13",51.619032,-0.092624,9/2/2021,3,0,0,1,1,0,0,3,1,1,terraced house,42
375000,1 bed flat for sale ,"Hastings Road, London W13",51.513251,-0.314901,9/2/2021,0,0,0,1,1,0,1,1,1,1,flat,43
1200000,3 bed terraced house for sale ,"Engadine Street, London SW18",51.44448,-0.202638,9/2/2021,3,3,0,0,0,2,0,3,3,2,terraced house,44
5e+05,1 bed flat for sale ,"Gatliff Road, London SW1W",51.487207,-0.148358,9/2/2021,0,0,0,1,1,0,1,1,1,1,flat,45
125000,1 bed flat for sale ,"Gatliff Road, London SW1W",51.487207,-0.148358,9/2/2021,0,0,0,1,1,0,1,1,1,1,flat,46
1250000,2 bed flat for sale ,"Ladbroke Road, London W11",51.507548,-0.206975,9/2/2021,2,0,0,1,1,0,0,2,1,1,flat,47
6e+05,4 bed semi-detached house for sale ,"Littleheath Road, Selsdon, South Croydon CR2",51.345871,-0.062669,9/2/2021,4,0,"1,361",1,0,2,0,4,1,2,semi-detached house,48
3950000,3 bed flat for sale ,"Queen Anne's Gate, Westminster, London SW1H",51.500872,-0.132372,9/2/2021,3,2,0,0,1,0,0,3,2,1,flat,49
6e+05,2 bed semi-detached house for sale ,"Marlton Street, London SE10",51.486611,0.013157,9/2/2021,2,0,0,1,1,0,0,2,1,1,semi-detached house,50
4e+05,1 bed flat for sale ,"Signia Court, Wembley Hill Road, Wembley, Middlesex HA9",51.555883,-0.286447,9/2/2021,0,0,0,1,1,0,1,1,1,1,flat,51
489950,2 bed flat for sale ,"Cecil Close, Mount Avenue, London W5",51.524281,-0.302247,9/2/2021,2,0,0,1,1,0,0,2,1,1,flat,52
750000,3 bed flat for sale ,"Landward Court, Marylebone, London W1H",51.5172,-0.165112,9/2/2021,3,2,0,0,1,0,0,3,2,1,flat,53
550000,2 bed flat for sale ,"Compton Road, Winchmore Hill N21",51.632083,-0.098534,9/2/2021,2,0,0,1,1,0,0,2,1,1,flat,54
999950,5 bed detached house for sale ,"Cunningham Park, Harrow HA1",51.587723,-0.345769,9/2/2021,5,2,0,0,0,3,0,5,2,3,detached house,55
750000,4 bed terraced house for sale ,"Lower Richmond Road, Richmond, Surrey TW9",51.467894,-0.28164,9/2/2021,4,2,0,0,0,2,0,4,2,2,terraced house,56
9e+05,2 bed mews house for sale ,"Blake Mews, Kew, Richmond, Surrey TW9",51.476182,-0.285735,9/2/2021,2,2,0,0,0,2,0,2,2,2,mews house,57
820000,3 bed terraced house for sale ,"Winters Road, Thames Ditton KT7",51.389717,-0.32296,9/2/2021,3,3,0,0,0,2,0,3,3,2,terraced house,58
340000,2 bed flat for sale ,"Lyonsdown Road, Barnet EN5",51.644899,-0.178265,9/2/2021,2,0,0,1,1,0,0,2,1,1,flat,59
4e+05,2 bed flat for sale ,"Coppetts Road, London N10",51.604291,-0.15554,9/2/2021,2,2,0,0,1,0,0,2,2,1,flat,60
595000,3 bed flat for sale ,"Signia Court, Wembley Hill Road, Wembley, Middlesex HA9",51.555883,-0.286447,9/2/2021,3,0,0,1,1,0,0,3,1,1,flat,61
350000,Studio for sale ,"Filmer Road, London SW6",51.479768,-0.207349,9/2/2021,0,0,0,1,1,0,0,0,1,1,Studio,62
1400000,2 bed flat for sale ,"Harcourt Terrace, London SW10",51.487737,-0.186463,9/2/2021,2,0,0,1,0,0,0,2,1,0,flat,63
8e+05,2 bed flat for sale ,"St. George Wharf, London SW8",51.485704,-0.125117,9/2/2021,2,2,0,0,1,0,0,2,2,1,flat,64
310000,1 bed flat for sale ,"Homerton High Street, Hackney E9",51.54781,-0.045571,9/2/2021,0,0,0,1,1,0,1,1,1,1,flat,65
1150000,7 bed semi-detached house for sale ,"Westbrook Road, Heston, Hounslow TW5",51.483508,-0.377074,9/2/2021,7,3,0,0,1,0,0,7,3,1,semi-detached house,66
1500000,3 bed end terrace house for sale ,"Rotherfield Street, Islington, London N1",51.540295,-0.092688,9/2/2021,3,2,0,0,0,2,0,3,2,2,end terrace house,67
399950,1 bed flat for sale ,"Cumberland Mills Square, London E14",51.487789,-0.005776,9/2/2021,0,0,0,1,1,0,1,1,1,1,flat,68
725000,2 bed maisonette for sale ,"Brandlehow Road, London SW15",51.461379,-0.207417,9/2/2021,2,2,0,0,1,0,0,2,2,1,maisonette,69
475000,3 bed terraced house for sale ,"Dirdene Gardens, Epsom KT17",51.337402,-0.25659,9/2/2021,3,0,0,1,0,2,0,3,1,2,terraced house,70
399950,2 bed flat for sale ,"Lapford Close, London W9",51.527031,-0.202144,9/2/2021,2,0,0,1,1,0,0,2,1,1,flat,71
599950,3 bed semi-detached house for sale ,"Addington Road, West Wickham BR4",51.369653,-0.00429,9/2/2021,3,0,0,1,0,2,0,3,1,2,semi-detached house,72
675000,3 bed terraced house for sale ,"Olive Road, London W5",51.499591,-0.303774,9/2/2021,3,2,0,0,1,0,0,3,2,1,terraced house,73
384950,1 bed flat for sale ,"Rommany Road, London SE27",51.427765,-0.089063,9/2/2021,0,0,0,1,1,0,1,1,1,1,flat,74
1395000,3 bed flat for sale ,"Hilary Mews, London SE1",51.50179,-0.093073,9/2/2021,3,2,0,0,1,0,0,3,2,1,flat,75
564950,3 bed semi-detached house for sale ,"Coldharbour Lane, Hayes, Greater London UB3",51.513129,-0.411886,9/2/2021,3,2,0,0,0,2,0,3,2,2,semi-detached house,76
695000,2 bed flat for sale ,"Christchurch Avenue, Brondesbury NW6",51.544477,-0.209056,9/2/2021,2,2,0,0,1,0,0,2,2,1,flat,77
8e+05,4 bed semi-detached house for sale ,"Broomfield Road, Bexleyheath, Kent DA6",51.451372,0.15,9/2/2021,4,0,0,1,0,2,0,4,1,2,semi-detached house,78
425000,1 bed flat for sale ,"7 Lyell Street, Meade House, London City Island E14",51.512486,0.005958,9/2/2021,0,0,0,1,0,0,1,1,1,0,flat,79
725000,3 bed end terrace house for sale ,"Cottingham Road, London SE20",51.41407,-0.049298,9/2/2021,3,0,0,1,1,0,0,3,1,1,end terrace house,80
447170,2 bed maisonette for sale ,"Kiln Place, London NW5",51.553442,-0.151135,9/2/2021,2,0,0,1,1,0,0,2,1,1,maisonette,81
799999,Studio for sale ,"Grosvenor Avenue, London N5",51.549498,-0.088656,9/2/2021,0,0,0,0,0,0,0,0,0,0,Studio,82
1300000,2 bed flat for sale ,"Crown Lodge, Elystan Street SW3",51.491753,-0.167764,9/2/2021,2,2,0,0,1,0,0,2,2,1,flat,83
999950,5 bed terraced house for sale ,"Boaters Avenue, Brentford TW8",51.484084,-0.313679,9/2/2021,5,3,0,0,1,0,0,5,3,1,terraced house,84
425000,1 bed flat for sale ,"Hazellville Road, London N19",51.573007,-0.130877,9/2/2021,0,0,0,1,1,0,1,1,1,1,flat,85
1200000,3 bed flat for sale ,"Arkwright Road, Hampstead, London NW3",51.551182,-0.182022,9/2/2021,3,2,0,0,1,0,0,3,2,1,flat,86
148000,Studio for sale ,"Caledonian Road, Islington, London N1",51.540143,-0.116676,9/2/2021,0,0,0,1,1,0,0,0,1,1,Studio,87
625000,4 bed semi-detached house for sale ,"Barmor Close, Harrow HA2",51.600647,-0.356902,9/2/2021,4,0,0,1,0,2,0,4,1,2,semi-detached house,88
3e+06,7 bed semi-detached house for sale ,"Lessar Avenue, London SW4",51.454724,-0.143885,9/2/2021,7,0,"3,488",0,0,0,0,7,0,0,semi-detached house,89
575000,3 bed end terrace house for sale ,"Chatsworth Avenue, Wembley HA9",51.552363,-0.286643,9/2/2021,3,0,0,1,0,2,0,3,1,2,end terrace house,90
8e+05,4 bed terraced house for sale ,"Laburnum Road, London SW19",51.417272,-0.183529,9/2/2021,4,2,0,0,0,2,0,4,2,2,terraced house,91
1100000,1 bed flat for sale ,"Gloucester Walk, London W8",51.504808,-0.194848,9/2/2021,0,0,0,1,1,0,1,1,1,1,flat,92
399950,2 bed maisonette for sale ,"Henley Close, Isleworth TW7",51.476013,-0.335432,9/2/2021,2,0,0,1,1,0,0,2,1,1,maisonette,93
475000,3 bed end terrace house for sale ,"Waddon Road, Croydon, Surrey CR0",51.371244,-0.116161,9/2/2021,3,0,0,1,0,2,0,3,1,2,end terrace house,94
550000,3 bed semi-detached house for sale ,"Hook Road, Epsom KT19",51.342006,-0.26921,9/2/2021,3,2,0,0,0,2,0,3,2,2,semi-detached house,95
3e+05,3 bed terraced house for sale ,"101 Halstead Road, Winchmore Hill, London N21",51.631042,-0.087818,9/2/2021,3,0,0,0,0,0,0,3,0,0,terraced house,96
450000,4 bed terraced house for sale ,"Rugby Road, Dagenham RM9",51.540004,0.118721,9/2/2021,4,0,0,1,1,0,0,4,1,1,terraced house,97
340000,1 bed flat for sale ,"Derbyshire Street, London E2",51.526687,-0.061538,9/2/2021,0,0,0,1,1,0,1,1,1,1,flat,98
370000,1 bed flat for sale ,"Coutts Crescent, St. Albans Road, London NW5",51.547725,-0.153693,9/2/2021,0,0,0,1,1,0,1,1,1,1,flat,99
385000,1 bed flat for sale ,"Whitestile Road, Brentford TW8",51.494207,-0.305826,9/2/2021,0,0,0,1,1,0,1,1,1,1,flat,100
0,3 bed flat for sale ,"City Road, London EC1V",51.529985,-0.097296878,9/2/2021,3,2,0,0,1,0,0,3,2,1,flat,101
625000,3 bed semi-detached house for sale ,"St. Stephen's Road, Hounslow, Semi-Detached House TW3",51.45907,-0.368339,9/2/2021,3,2,0,0,0,2,0,3,2,2,semi-detached house,102
724950,6 bed end terrace house for sale ,"Bedser Drive, Greenford / Sudbury Hill Borders UB6",51.555078,-0.344985,9/2/2021,6,3,0,0,1,0,0,6,3,1,end terrace house,103
240000,2 bed flat for sale ,"Strongbow Crescent, London SE9",51.454498,0.053124,9/2/2021,2,0,0,1,1,0,0,2,1,1,flat,104
6e+05,1 bed flat for sale ,"Marchmont Street, London WC1N",51.525814,-0.125405,9/2/2021,0,0,0,1,1,0,1,1,1,1,flat,105
785000,3 bed property for sale ,"Olinda Road, London N16",51.57579,-0.068282,9/2/2021,3,0,0,1,1,0,0,3,1,1,property,106
375000,4 bed maisonette for sale ,"Lindley Estate, London SE15",51.479025,-0.068847,9/2/2021,4,0,0,1,1,0,0,4,1,1,maisonette,107
650000,2 bed flat for sale ,"Gunnersbury Avenue, Ealing W5",51.507506,-0.290914,9/2/2021,2,0,0,1,1,0,0,2,1,1,flat,108
295000,2 bed flat for sale ,"Croydon Road, Beckenham BR3",51.405766,-0.03343,9/2/2021,2,0,0,1,1,0,0,2,1,1,flat,109
650000,3 bed detached house for sale ,"Craigerne Road, London SE3",51.478238,0.023647,9/2/2021,3,2,0,0,1,0,0,3,2,1,detached house,110
6e+05,5 bed terraced house for sale ,"Green Lane, Ilford IG3",51.56195,0.102978,9/2/2021,5,3,0,0,0,3,0,5,3,3,terraced house,111
4200000,3 bed flat for sale ,"Warrington Crescent, London W9",51.52548,-0.183815,9/2/2021,3,3,"2,027",0,1,0,0,3,3,1,flat,112
550000,2 bed property for sale ,"Winslow Close, Eastcote, Pinner HA5",51.581638,-0.400217,9/2/2021,2,2,0,0,1,0,0,2,2,1,property,113
4e+05,3 bed terraced house for sale ,"Elizabeth Ride, Edmonton N9",51.635082,-0.051799,9/2/2021,3,0,0,1,0,2,0,3,1,2,terraced house,114
850000,4 bed detached house for sale ,"Douglas Road, Surbiton KT6",51.3787,-0.295771,9/2/2021,4,2,0,0,0,2,0,4,2,2,detached house,115
550000,2 bed flat for sale ,"Manor Park, London SE13",51.45706,-0.001487,9/2/2021,2,0,817,1,0,0,0,2,1,0,flat,116
520000,1 bed flat for sale ,"Broadhurst Gardens, South Hampstead NW6",51.546661,-0.18213,9/2/2021,0,0,527,1,1,0,1,1,1,1,flat,117
225000,1 bed flat for sale ,"Longbridge Road, Barking IG11",51.549028,0.102916,9/2/2021,0,0,0,1,1,0,1,1,1,1,flat,118
270000,2 bed flat for sale ,"Ashford Road, Feltham TW13",51.437648,-0.424697,9/2/2021,2,0,0,1,1,0,0,2,1,1,flat,119
1850000,3 bed maisonette for sale ,"Crediton Hill, West Hampstead, London NW6",51.550327,-0.188446,9/2/2021,3,2,"1,502",0,1,0,0,3,2,1,maisonette,120
425000,1 bed flat for sale ,"Plumbers Row, London E1",51.515701,-0.065826,9/2/2021,0,0,0,1,1,0,1,1,1,1,flat,121
450000,3 bed maisonette for sale ,"Coldharbour Lane, London SW9",51.465698,-0.102489,9/2/2021,3,0,"1,036",1,1,0,0,3,1,1,maisonette,122
4e+05,2 bed maisonette for sale ,"Welbeck Road, Barnet, Hertfordshire EN4",51.642379,-0.165602,9/2/2021,2,0,0,1,1,0,0,2,1,1,maisonette,123
350000,1 bed flat for sale ,"Shirland Road, Maida Vale, London W9",51.527084,-0.195585,9/2/2021,0,0,0,1,1,0,1,1,1,1,flat,124
350000,2 bed flat for sale ,"High Street Colliers Wood, Colliers Wood, London SW19",51.422851,-0.173546,9/2/2021,2,0,0,1,1,0,0,2,1,1,flat,125
4e+05,3 bed flat for sale ,"Maud Road, London E13",51.533531,0.017083,9/2/2021,3,2,0,0,1,0,0,3,2,1,flat,126
710000,2 bed flat for sale ,"Beechcroft House, Park View Road, Ealing W5",51.522084,-0.295659,9/2/2021,2,2,962,0,1,0,0,2,2,1,flat,127
525000,1 bed flat for sale ,"Brompton Park Crescent, London SW6",51.483061,-0.193283,9/2/2021,0,0,0,1,1,0,1,1,1,1,flat,128
6e+05,3 bed end terrace house for sale ,"Mayfield Road, Walthamstow, London E17",51.595262,-0.037179,9/2/2021,3,0,0,1,0,2,0,3,1,2,end terrace house,129
1750000,4 bed detached house for sale ,"Burrard Road, London NW6",51.554775,-0.194397,9/2/2021,4,2,0,0,0,2,0,4,2,2,detached house,130
650000,4 bed terraced house for sale ,"Middleton Gardens, Ilford IG2",51.573435,0.073577,9/2/2021,4,0,0,1,0,2,0,4,1,2,terraced house,131
4e+05,2 bed terraced house for sale ,"St. Anselms Road, Hayes UB3",51.506222,-0.420512,9/2/2021,2,0,0,1,1,0,0,2,1,1,terraced house,132
6e+05,2 bed flat for sale ,"Commercial Road, London E1",51.51507,-0.06667,9/2/2021,2,2,0,0,1,0,0,2,2,1,flat,133
550000,3 bed property for sale ,"North Street, Carshalton SM5",51.370376,-0.166429,9/2/2021,3,2,0,0,0,2,0,3,2,2,property,134
3950000,5 bed detached house for sale ,"Park Avenue, Farnborough, Orpington BR6",51.37009,0.05203,9/2/2021,5,3,0,0,0,7,0,5,3,7,detached house,135
1320000,4 bed terraced house for sale ,"Coval Road, London SW14",51.462989,-0.273374,9/2/2021,4,2,0,0,1,0,0,4,2,1,terraced house,136
475000,2 bed flat for sale ,"Bancroft Road, London E1",51.525863,-0.044955,9/2/2021,2,0,852,1,1,0,0,2,1,1,flat,137
350000,1 bed flat for sale ,"Gilmore Road, London SE13",51.45949,-0.004807,9/2/2021,0,0,0,1,1,0,1,1,1,1,flat,138
4e+05,3 bed terraced house for sale ,"Cecil Road, Croydon, Surrey CR0",51.38728,-0.123435,9/2/2021,3,0,0,1,0,2,0,3,1,2,terraced house,139
320000,2 bed flat for sale ,"Seymour Road, Mitcham Junction, Mitcham CR4",51.383796,-0.159673,9/2/2021,2,0,0,1,1,0,0,2,1,1,flat,140
450000,3 bed semi-detached house for sale ,"Cambridge Road, Penge SE20, London",51.402267,-0.065086,9/2/2021,3,0,0,1,1,0,0,3,1,1,semi-detached house,141
5850000,3 bed flat for sale ,"York Terrace West, Regents Park, London NW1",51.523519,-0.15428,9/2/2021,3,3,0,0,1,0,0,3,3,1,flat,142
375000,2 bed flat for sale ,"Meadowview, Ham, Richmond TW10",51.435967,-0.320192,9/2/2021,2,0,0,1,1,0,0,2,1,1,flat,143
475000,2 bed end terrace house for sale ,"Washington Road, Worcester Park KT4",51.381358,-0.237921,9/2/2021,2,0,0,1,0,2,0,2,1,2,end terrace house,144
525000,1 bed flat for sale ,"Elm Bank Mansions, The Terrace, Barnes SW13",51.472049,-0.253513,9/2/2021,0,0,0,1,1,0,1,1,1,1,flat,145
525000,1 bed flat for sale ,"Palladian Gardens, London W4",51.486424,-0.255182,9/2/2021,0,0,0,1,1,0,1,1,1,1,flat,146
460000,2 bed flat for sale ,"Chiswick High Road, London W4",51.490654,-0.284035,9/2/2021,2,0,0,1,1,0,0,2,1,1,flat,147
6e+05,4 bed property for sale ,"Becket Close, Woodford Green IG8",51.59912,0.054454,9/2/2021,4,3,0,0,1,0,0,4,3,1,property,148
4e+05,1 bed flat for sale ,"121 East Ferry Road, London E14",51.496372,-0.013973,9/2/2021,0,0,0,1,1,0,1,1,1,1,flat,149
375000,1 bed flat for sale ,"Henfield Road, London SW19",51.412308,-0.208848,9/2/2021,0,0,0,1,1,0,1,1,1,1,flat,150
350000,1 bed flat for sale ,"Hamlet Gardens, London W6",51.494013,-0.241487,9/2/2021,0,0,0,1,1,0,1,1,1,1,flat,151
191250,2 bed flat for sale ,"Chancery Building, Wandsworth, London SW11",51.481577,-0.135498,9/2/2021,2,0,807,1,0,0,0,2,1,0,flat,152
475000,2 bed flat for sale ,"Denmark Hill, London SE5",51.461101,-0.094043,9/2/2021,2,0,0,1,0,0,0,2,1,0,flat,153
840000,2 bed flat for sale ,"Pinto Tower, Nine Elms Point, Nine Elms SW8",51.48153,-0.127924,9/2/2021,2,2,0,0,1,0,0,2,2,1,flat,154
615000,2 bed flat for sale ,"Bollo Lane, Acton, London W3",51.501862,-0.278201,9/2/2021,2,2,798,0,0,0,0,2,2,0,flat,155
485000,1 bed flat for sale ,"Bollo Lane, Acton, London W3",51.501862,-0.278201,9/2/2021,0,0,535,1,0,0,1,1,1,0,flat,156
1175000,4 bed terraced house for sale ,"Brocklebank Road, Earlsfield SW18",51.449462,-0.185756,9/2/2021,4,2,"1,345",0,1,0,0,4,2,1,terraced house,157
1550000,5 bed detached house for sale ,"Cole Park Gardens, Twickenham TW1",51.457433,-0.328129,9/2/2021,5,3,0,0,0,3,0,5,3,3,detached house,158
1400000,4 bed semi-detached house for sale ,"Atbara Road, Teddington TW11",51.424447,-0.318525,9/2/2021,4,0,0,1,0,2,0,4,1,2,semi-detached house,159
769000,2 bed flat for sale ,"Lakeside Drive, Park Royal, London NW10",51.531087,-0.285801,9/2/2021,2,2,0,0,1,0,0,2,2,1,flat,160
690000,3 bed flat for sale ,"Bollo Lane, Acton, London W3",51.501862,-0.278201,9/2/2021,3,2,"1,051",0,0,0,0,3,2,0,flat,161
525000,5 bed semi-detached house for sale ,"Totnes Road, Welling DA16",51.474587,0.114884,9/2/2021,5,0,0,1,0,2,0,5,1,2,semi-detached house,162
5e+05,2 bed flat for sale ,"Sydney Road, Enfield EN2",51.649114,-0.081239,9/2/2021,2,2,0,0,1,0,0,2,2,1,flat,163
450000,3 bed maisonette for sale ,"Lordship Lane, London N22",51.598354,-0.096573,9/2/2021,3,0,0,1,1,0,0,3,1,1,maisonette,164
685000,3 bed flat for sale ,"Bollo Lane, Acton, London W3",51.501862,-0.278201,9/2/2021,3,2,"1,051",0,0,0,0,3,2,0,flat,165
995000,4 bed town house for sale ,"Sir Alexander Close, Acton W3",51.508399,-0.249145,9/2/2021,4,3,"2,500",0,1,0,0,4,3,1,town house,166
750000,2 bed flat for sale ,"Pilot Walk, London SE10",51.497588,0.012385,9/2/2021,2,2,790,0,1,0,0,2,2,1,flat,167
549900,1 bed flat for sale ,"The Shoreline Building, 42 Newnton Close, London N4",51.57316,-0.08542,9/2/2021,0,0,0,1,1,0,1,1,1,1,flat,168
1150000,5 bed semi-detached house for sale ,"Dukes Avenue, New Malden KT3",51.403677,-0.252907,9/2/2021,5,2,0,0,0,3,0,5,2,3,semi-detached house,169
350000,1 bed flat for sale ,"Trinity Court, 221 Marsh Road, Pinner, Middlesex HA5",51.59254,-0.382417,9/2/2021,0,0,0,1,0,0,1,1,1,0,flat,170
435000,2 bed flat for sale ,"Conifer Court, Inner Park Road, Southfields SW19",51.444855,-0.221274,9/2/2021,2,2,0,0,1,0,0,2,2,1,flat,171
360000,1 bed flat for sale ,"Trinity Court, 221 Marsh Road, Pinner, Middlesex HA5",51.59254,-0.382417,9/2/2021,0,0,0,1,0,0,1,1,1,0,flat,172
285000,1 bed flat for sale ,"Belmont Road, Uxbridge, Middlesex UB8",51.548115,-0.478315,9/2/2021,0,0,0,1,1,0,1,1,1,1,flat,173
4e+05,1 bed flat for sale ,"Ballina Street, London SE23",51.44857,-0.044365,9/2/2021,0,0,0,1,1,0,1,1,1,1,flat,174
635000,1 bed flat for sale ,"Pinto Tower, Nine Elms Point, Nine Elms SW8",51.48153,-0.127924,9/2/2021,0,0,0,1,1,0,1,1,1,1,flat,175
465000,2 bed maisonette for sale ,"Como Road, London SE23",51.436746,-0.043121,9/2/2021,2,0,0,1,1,0,0,2,1,1,maisonette,176
450000,4 bed terraced house for sale ,"Melrose Close, Hayes UB4",51.525187,-0.413331,9/2/2021,4,0,0,1,1,0,0,4,1,1,terraced house,177
4e+05,3 bed end terrace house for sale ,"Green Lane, Dagenham, Essex RM8",51.561185,0.137814,9/2/2021,3,0,0,1,1,0,0,3,1,1,end terrace house,178
3e+05,2 bed flat for sale ,"Byron Way, Northolt UB5",51.530323,-0.385285,9/2/2021,2,0,0,1,1,0,0,2,1,1,flat,179
3e+05,1 bed flat for sale ,"Yunus Khan Close, Walthamstow, London E17",51.578013,-0.018863,9/2/2021,0,0,0,1,1,0,1,1,1,1,flat,180
550000,2 bed terraced house for sale ,"Downsfield Road, Walthamstow, London E17",51.576538,-0.032398,9/2/2021,2,0,0,1,1,0,0,2,1,1,terraced house,181
325000,2 bed flat for sale ,"Rutland Walk, Catford SE6",51.43719,-0.032519,9/2/2021,2,0,0,1,1,0,0,2,1,1,flat,182
450000,2 bed flat for sale ,"Voltaire Road, London SW4",51.464741,-0.131427,9/2/2021,2,0,0,1,1,0,0,2,1,1,flat,183
425000,1 bed flat for sale ,"Evering Road, London E5",51.560356,-0.061884,9/2/2021,0,0,0,1,1,0,1,1,1,1,flat,184
560000,1 bed flat for sale ,"Central London Apartments, Victoria Rd, London W3",51.522933,-0.258797,9/2/2021,0,0,0,1,1,0,1,1,1,1,flat,185
375000,1 bed flat for sale ,"West End Avenue, Pinner HA5",51.59052,-0.385014,9/2/2021,0,0,557,1,1,0,1,1,1,1,flat,186
1350000,4 bed end terrace house for sale ,"Giesbach Road, Archway, London N19",51.565903,-0.133174,9/2/2021,4,0,0,1,0,2,0,4,1,2,end terrace house,187
570000,1 bed flat for sale ,"Central London Apartment, Victoria Rd, London W3",51.522933,-0.258797,9/2/2021,0,0,0,1,1,0,1,1,1,1,flat,188
585000,1 bed flat for sale ,"Comeragh Road, London W14",51.488999,-0.209963,9/2/2021,0,0,0,1,1,0,1,1,1,1,flat,189
230000,1 bed flat for sale ,"Westfield Close, Enfield, Middlesex EN3",51.652851,-0.033668,9/2/2021,0,0,0,1,1,0,1,1,1,1,flat,190
499950,1 bed flat for sale ,"Skylark Point, 48 Newnton Close, London N4",51.573498,-0.084609,9/2/2021,0,0,0,1,1,0,1,1,1,1,flat,191
1275000,3 bed flat for sale ,"Richmond Mansions, Denton Road, Twickenham TW1",51.453658,-0.304681,9/2/2021,3,2,0,0,0,2,0,3,2,2,flat,192
580000,1 bed flat for sale ,"Central London Apartments, Victoria Rd, London W3",51.522933,-0.258797,9/2/2021,0,0,0,1,1,0,1,1,1,1,flat,193
2200000,5 bed detached house for sale ,"Park Avenue, Farnborough, Orpington BR6",51.370441,0.05774,9/2/2021,5,4,0,0,0,4,0,5,4,4,detached house,194
2250000,3 bed terraced house for sale ,"Edge Street, London W8",51.507598,-0.196054,9/2/2021,3,3,0,0,1,0,0,3,3,1,terraced house,195
6e+05,1 bed flat for sale ,"Central London Apartment, Victoria Rd, London W3",51.522933,-0.258797,9/2/2021,0,0,0,1,1,0,1,1,1,1,flat,196
620000,1 bed flat for sale ,"Central London Apartments, Victoria Rd, London W3",51.522933,-0.258797,9/2/2021,0,0,0,1,0,0,1,1,1,0,flat,197
650000,1 bed flat for sale ,"Central London Apartments, Victoria Rd, London W3",51.522933,-0.258797,9/2/2021,0,0,0,1,1,0,1,1,1,1,flat,198
535000,2 bed flat for sale ,"East Dulwich Road, East Dulwich SE22",51.461494,-0.070235,9/2/2021,2,2,0,0,1,0,0,2,2,1,flat,199
475000,3 bed terraced house for sale ,"Plumstead High Street, London SE18",51.48627,0.098298,9/2/2021,3,0,0,1,1,0,0,3,1,1,terraced house,200
440000,1 bed flat for sale ,"Anna Close, Brownlow Road, London E8",51.537765,-0.069599,9/2/2021,0,0,0,1,1,0,1,1,1,1,flat,201
280000,1 bed flat for sale ,"Malyons Road, Ladywell SE13",51.455733,-0.020305,9/2/2021,0,0,0,1,1,0,1,1,1,1,flat,202
7e+05,1 bed flat for sale ,"Central London Apartment, Victoria Rd, London W3",51.522933,-0.258797,9/2/2021,0,0,0,1,1,0,1,1,1,1,flat,203
529950,2 bed terraced house for sale ,"Chamberlain Lane, Pinner HA5",51.59357,-0.406702,9/2/2021,2,2,0,0,1,0,0,2,2,1,terraced house,204
720000,2 bed flat for sale ,"Central London Apartments, Victoria Rd, London W3",51.522933,-0.258797,9/2/2021,2,0,0,1,1,0,0,2,1,1,flat,205
725000,3 bed semi-detached house for sale ,"Handsworth Avenue, London E4",51.607964,0.001573,9/2/2021,3,0,0,1,1,0,0,3,1,1,semi-detached house,206
740000,2 bed flat for sale ,"Central London Apartment, Victoria Rd, London W3",51.522933,-0.258797,9/2/2021,2,0,0,1,1,0,0,2,1,1,flat,207
0,4 bed semi-detached house for sale ,"Lambert Avenue, Richmond TW9",51.467155,-0.280092,9/2/2021,4,3,0,0,1,0,0,4,3,1,semi-detached house,208
485000,2 bed flat for sale ,"Trinity Road, London SW17",51.439394,-0.164032,9/2/2021,2,0,0,1,1,0,0,2,1,1,flat,209
875000,2 bed flat for sale ,"Haverstock Hill, London NW3",51.5494,-0.163914,9/2/2021,2,0,818,1,1,0,0,2,1,1,flat,210
1450000,4 bed end terrace house for sale ,"Vivienne Close, Twickenham TW1",51.453342,-0.30942,9/2/2021,4,0,0,0,0,0,0,4,0,0,end terrace house,211
330000,3 bed property for sale ,"Betsham Road, Erith DA8",51.475424,0.184478,9/2/2021,3,0,936,1,1,0,0,3,1,1,property,212
225000,1 bed flat for sale ,"Murray Grove, London N1",51.530148,-0.09082,9/2/2021,0,0,0,1,0,0,1,1,1,0,flat,213
4e+05,1 bed flat for sale ,"Upper Brighton Road, Surbiton KT6",51.385253,-0.3001,9/2/2021,0,0,0,1,1,0,1,1,1,1,flat,214
425000,1 bed flat for sale ,"Lily Close, London W14",51.493637,-0.21536,9/2/2021,0,0,0,1,1,0,1,1,1,1,flat,215
2850000,3 bed flat for sale ,"Circus Road West, Battersea Power Station, Nine Elms, London SW11",51.480731,-0.139366,9/2/2021,3,3,"1,421",0,0,0,0,3,3,0,flat,216
650000,3 bed terraced house for sale ,"Elphinstone Road, Walthamstow, London E17",51.593151,-0.026509,9/2/2021,3,0,0,1,1,0,0,3,1,1,terraced house,217
650000,3 bed semi-detached house for sale ,"Wise Lane, London NW7",51.611229,-0.227382,9/2/2021,3,0,0,1,0,2,0,3,1,2,semi-detached house,218
435000,2 bed flat for sale ,"Field End Road, Eastcote HA4",51.574829,-0.39577,9/2/2021,2,2,0,0,0,0,0,2,2,0,flat,219
545000,3 bed semi-detached house for sale ,"Kings Avenue, Woodford Green, Essex IG8",51.61301,0.037219,9/2/2021,3,0,0,1,0,3,0,3,1,3,semi-detached house,220
275000,2 bed maisonette for sale ,"Chalford Walk, Woodford Green, Essex IG8",51.599929,0.043781,9/2/2021,2,0,0,1,1,0,0,2,1,1,maisonette,221
540000,2 bed property for sale ,"New Crescent Yard, Acton Lane, Harlesden, London NW10",51.536158,-0.248401,9/2/2021,2,0,0,1,1,0,0,2,1,1,property,222
450000,1 bed flat for sale ,"Ashton Reach, Surrey Quays, London SE16",51.491533,-0.03631,9/2/2021,0,0,0,1,0,0,1,1,1,0,flat,223
325000,1 bed flat for sale ,"Conington Road, Lewisham, London SE13",51.467728,-0.013806,9/2/2021,0,0,0,1,1,0,1,1,1,1,flat,224
2500000,4 bed flat for sale ,"Kidderpore Avenue, Hampstead, London NW3",51.557679,-0.194559,9/2/2021,4,4,0,0,0,2,0,4,4,2,flat,225
795000,2 bed flat for sale ,"Imperial Court, Shepherds Hill, Highgate, London N6",51.577854,-0.13792,9/2/2021,2,2,0,0,1,0,0,2,2,1,flat,226
325000,2 bed flat for sale ,"Boundfield Road, Catford, London SE6",51.43493,0.00687,9/2/2021,2,2,0,0,1,0,0,2,2,1,flat,227
725000,1 bed flat for sale ,"Belvedere Row Apartments, Fountain Park Way, London W12",51.511787,-0.221873,9/2/2021,0,0,0,1,1,0,1,1,1,1,flat,228
350000,1 bed flat for sale ,"Willesden Lane, Brondesbury, London NW6",51.544055,-0.210328,9/2/2021,0,0,0,1,1,0,1,1,1,1,flat,229
1700000,4 bed semi-detached house for sale ,"Burrows Road, Kensal Green, London NW10",51.531919,-0.222352,9/2/2021,4,2,0,0,1,0,0,4,2,1,semi-detached house,230
5e+05,3 bed flat for sale ,"All Souls Avenue, Willesden Green, London NW10",51.540296,-0.226913,9/2/2021,3,0,0,1,0,2,0,3,1,2,flat,231
5e+05,2 bed flat for sale ,"Dobson Walk, Camberwell, London SE5",51.48001,-0.089259,9/2/2021,2,0,0,1,1,0,0,2,1,1,flat,232
550000,2 bed flat for sale ,"Camberwell Grove, Camberwell, London SE5",51.473279,-0.089191,9/2/2021,2,0,0,1,1,0,0,2,1,1,flat,233
425000,1 bed flat for sale ,"East Dulwich Grove, East Dulwich, London SE22",51.457733,-0.08283,9/2/2021,0,0,0,1,1,0,1,1,1,1,flat,234
530000,2 bed flat for sale ,"Peartree Way, Greenwich, London SE10",51.495004,0.013556,9/1/2021,2,0,0,1,1,0,0,2,1,1,flat,235
465000,3 bed end terrace house for sale ,"Hamilton Crescent, Harrow HA2",51.564072,-0.372129,9/1/2021,3,0,0,1,1,0,0,3,1,1,end terrace house,236
725000,5 bed end terrace house for sale ,"Torbay Road, Harrow HA2",51.566953,-0.38217,9/1/2021,5,2,0,0,1,0,0,5,2,1,end terrace house,237
350000,1 bed flat for sale ,"Lordship Lane, Dulwich SE22",51.452278,-0.074165,9/1/2021,0,0,0,0,0,0,1,1,0,0,flat,238
1950000,3 bed flat for sale ,"Elsworthy Terrace, London NW3",51.5409,-0.165141,9/1/2021,3,3,"1,574",0,0,2,0,3,3,2,flat,239
1600000,2 bed terraced house for sale ,"West Mews, London SW1V",51.490686,-0.143282,9/1/2021,2,2,0,0,0,0,0,2,2,0,terraced house,240
470000,2 bed flat for sale ,"Princess Park Manor, Royal Drive, London N11",51.613903,-0.145591,9/1/2021,2,2,0,0,1,0,0,2,2,1,flat,241
4e+05,2 bed property for sale ,"Ethelburga Street, London SW11",51.476859,-0.167819,9/1/2021,2,0,0,1,1,0,0,2,1,1,property,242
565000,4 bed end terrace house for sale ,"Cairns Avenue, London SW16",51.405167,-0.14187,9/1/2021,4,3,0,0,1,0,0,4,3,1,end terrace house,243
430000,3 bed flat for sale ,"Birchwood Court, Godstone Road, Kenley CR8",51.319694,-0.087614,9/1/2021,3,2,0,0,1,0,0,3,2,1,flat,244
250000,1 bed flat for sale ,"Stable Walk, East Finchley N2",51.602003,-0.16964,9/1/2021,0,0,0,1,1,0,1,1,1,1,flat,245
160000,1 bed property for sale ,"Cedar Road, Sutton SM2",51.357671,-0.19067,9/1/2021,0,0,0,1,1,0,1,1,1,1,property,246
325000,2 bed flat for sale ,"36 Kingswood Drive, Sutton SM2",51.350584,-0.197082,9/1/2021,2,2,0,0,1,0,0,2,2,1,flat,247
875000,4 bed detached house for sale ,"Purley Bury Avenue, Purley CR8",51.338379,-0.104006,9/1/2021,4,2,0,0,0,2,0,4,2,2,detached house,248
350000,2 bed terraced house for sale ,"Brewery Road, London SE18",51.485786,0.081856,9/1/2021,2,0,0,1,1,0,0,2,1,1,terraced house,249
825000,3 bed flat for sale ,"Farleigh Road, London N16",51.5556,-0.06882,9/1/2021,3,2,0,0,1,0,0,3,2,1,flat,250
565000,1 bed flat for sale ,"Farleigh Road, London N16",51.5556,-0.06882,9/1/2021,0,0,0,1,1,0,1,1,1,1,flat,251
795000,2 bed flat for sale ,"Farleigh Road, London N16",51.5556,-0.06882,9/1/2021,2,2,0,0,1,0,0,2,2,1,flat,252
450000,3 bed semi-detached house for sale ,"Capel Road, Enfield EN1",51.67542,-0.05408,9/1/2021,3,0,0,1,0,2,0,3,1,2,semi-detached house,253
995000,3 bed flat for sale ,"Clifton Road, London N8",51.577862,-0.128409,9/1/2021,3,0,0,1,1,0,0,3,1,1,flat,254
4750000,4 bed flat for sale ,"Blore House, Coleridge Gardens, Kings Chelsea, London SW10",51.481264,-0.186996,9/1/2021,4,4,0,0,0,2,0,4,4,2,flat,255
385000,1 bed flat for sale ,"Strathearn Road, Wimbledon SW19",51.429661,-0.198531,9/1/2021,0,0,641,1,1,0,1,1,1,1,flat,256
1095000,4 bed semi-detached house for sale ,"Odessa Road, London E7",51.551609,0.01796,9/1/2021,4,0,0,1,0,3,0,4,1,3,semi-detached house,257
10500000,7 bed detached house for sale ,"Courtenay Avenue, Highgate, London N6",51.574629,-0.167824,9/1/2021,7,7,0,0,0,6,0,7,7,6,detached house,258
220000,Studio for sale ,"Brindley Place, Uxbridge, Middlesex UB8",51.520804,-0.482218,9/1/2021,0,0,0,1,0,0,1,1,1,0,Studio,259
1900000,8 bed mews house for sale ,"Hansard Mews, West Kennington W14",51.503028,-0.215451,9/1/2021,8,3,0,0,0,3,0,8,3,3,mews house,260
249950,1 bed flat for sale ,"Titus Lodge, 44 Varcoe Gardens, Hayes UB3",51.518343,-0.432595,9/1/2021,0,0,0,0,0,0,1,1,0,0,flat,261
375000,1 bed flat for sale ,"Knatchbull Road, London SE5",51.472766,-0.103008,9/1/2021,0,0,0,0,0,0,1,1,0,0,flat,262
675000,3 bed terraced house for sale ,"Longley Road, London SW17",51.422305,-0.170672,9/1/2021,3,0,0,1,1,0,0,3,1,1,terraced house,263
625000,5 bed detached house for sale ,"Wilhelmina Avenue, Coulsdon CR5",51.30358,-0.144724,9/1/2021,5,0,0,0,0,0,0,5,0,0,detached house,264
1250000,3 bed terraced house for sale ,"Talfourd Road, Peckham Rye SE15",51.472649,-0.078145,9/1/2021,3,0,"1,503",1,0,3,0,3,1,3,terraced house,265
675000,2 bed flat for sale ,"Wandsworth Road, London SW8",51.46944,-0.140797,9/1/2021,2,2,0,0,1,0,0,2,2,1,flat,266
425000,2 bed flat for sale ,"Windsor Court, Mostyn Grove, Bow, London E3",51.530137,-0.025509,9/1/2021,2,0,0,0,0,0,0,2,0,0,flat,267
375000,2 bed flat for sale ,"Bittacy Hill, Mill Hill East NW7",51.606911,-0.207944,9/1/2021,2,0,0,1,1,0,0,2,1,1,flat,268
375000,3 bed flat for sale ,"Park Gate Court, High Street, Hampton Hill, Hampton TW12",51.426645,-0.355556,9/1/2021,3,0,0,1,1,0,0,3,1,1,flat,269
1450000,4 bed terraced house for sale ,"Cranmore Way, Muswell Hill, Greater London N10",51.58767,-0.13579,9/1/2021,4,2,0,0,0,3,0,4,2,3,terraced house,270
8e+05,3 bed property for sale ,"Bowness Crescent, Kingston Vale SW15",51.427722,-0.260088,9/1/2021,3,0,0,1,1,0,0,3,1,1,property,271
474000,3 bed semi-detached house for sale ,"Wickham Road, Shirley, Croydon, Surrey CR0",51.374934,-0.048733,9/1/2021,3,0,0,0,0,0,0,3,0,0,semi-detached house,272
735000,2 bed flat for sale ,"Highgate Road, Dartmouth Park, London NW5",51.555186,-0.144804,9/1/2021,2,2,901,0,1,0,0,2,2,1,flat,273
1220000,2 bed flat for sale ,"Asquith House, West End Gate, Marylebone W2",51.520752,-0.171963,9/1/2021,2,2,0,0,1,0,0,2,2,1,flat,274
5e+05,2 bed maisonette for sale ,"Claire Court, North Finchley, London N12",51.616896,-0.180683,9/1/2021,2,0,0,1,1,0,0,2,1,1,maisonette,275
535000,1 bed flat for sale ,"Colinsdale, Camden Walk, London N1",51.535368,-0.102728,9/1/2021,0,0,0,1,1,0,1,1,1,1,flat,276
1175000,2 bed flat for sale ,"Castleton Court, 4-5 Cleveland Gardens, London W2",51.515585,-0.182272,9/1/2021,2,2,0,0,1,0,0,2,2,1,flat,277
8e+05,5 bed detached house for sale ,"Pole Hill Road, Hillingdon, Middlesex UB10",51.532813,-0.443517,9/1/2021,5,0,0,0,0,0,0,5,0,0,detached house,278
680000,3 bed flat for sale ,"Aurora Point, Plough Way, London SE16",51.492853,-0.036758,9/1/2021,3,2,0,0,0,0,0,3,2,0,flat,279
520000,1 bed flat for sale ,"""Block D - Type 18"" at Silvertown Way, London E16",51.512486,0.010882,9/1/2021,0,0,0,0,1,0,1,1,0,1,flat,280
645000,2 bed flat for sale ,"""Block D - Type 24W"" at Silvertown Way, London E16",51.512486,0.010882,9/1/2021,2,0,0,0,1,0,0,2,0,1,flat,281
690000,3 bed flat for sale ,"""Block D - Type 35"" at Silvertown Way, London E16",51.512486,0.010882,9/1/2021,3,0,0,0,0,2,0,3,0,2,flat,282
695000,3 bed flat for sale ,"""Block D - Type 36"" at Silvertown Way, London E16",51.512486,0.010882,9/1/2021,3,0,0,0,0,2,0,3,0,2,flat,283
525000,3 bed maisonette for sale ,"Carnarvon Road, Stratford, London E15",51.545538,0.011719,9/1/2021,3,2,0,0,1,0,0,3,2,1,maisonette,284
235000,Studio for sale ,"Bittern Court, Edward Street, London SE8",51.480483,-0.027297,9/1/2021,0,0,0,1,1,0,0,0,1,1,Studio,285
550000,1 bed flat for sale ,"Dartmouth Park Avenue, Dartmouth Park, London NW5",51.561179,-0.142038,9/1/2021,0,0,0,1,1,0,1,1,1,1,flat,286
315000,1 bed flat for sale ,"Arundel Court, Jubilee Place, London SW3",51.490174,-0.165917,9/1/2021,0,0,0,1,1,0,1,1,1,1,flat,287
5250000,7 bed detached house for sale ,"Briar Walk, Putney, London SW15",51.462701,-0.233537,9/1/2021,7,4,0,0,0,3,0,7,4,3,detached house,288
310000,1 bed flat for sale ,"Dairyman Close, Cricklewood NW2",51.559319,-0.212412,9/1/2021,0,0,0,1,1,0,1,1,1,1,flat,289
799000,4 bed semi-detached house for sale ,"West Way, Neasden, London NW10",51.560864,-0.257695,9/1/2021,4,0,0,0,0,0,0,4,0,0,semi-detached house,290
1600000,2 bed terraced house for sale ,"Bridstow Place, Notting Hill, London W2",51.516556,-0.19509,9/1/2021,2,2,0,0,1,0,0,2,2,1,terraced house,291
1550000,4 bed flat for sale ,"Clarence Gate Gardens, Glentworth Street, London NW1",51.523841,-0.159816,9/1/2021,4,0,"1,471",0,0,0,0,4,0,0,flat,292
1100000,3 bed detached house for sale ,"Effingham Road, Long Ditton, Surbiton KT6",51.387763,-0.318231,9/1/2021,3,0,0,0,0,0,0,3,0,0,detached house,293
9e+05,3 bed end terrace house for sale ,"Weavers Way, Camden, London NW1",51.53999,-0.13252,9/1/2021,3,0,0,1,1,0,0,3,1,1,end terrace house,294
550000,3 bed flat for sale ,"Skegness House, Sutterton Street, London N7",51.544007,-0.118204,9/1/2021,3,2,0,0,1,0,0,3,2,1,flat,295
799950,3 bed terraced house for sale ,"Alexandra Road, Hendon NW4",51.589129,-0.215962,9/1/2021,3,3,"1,309",0,0,2,0,3,3,2,terraced house,296
995000,3 bed flat for sale ,"Fleet Road, London NW3",51.553451,-0.160967,9/1/2021,3,2,0,0,1,0,0,3,2,1,flat,297
355000,Property for sale ,"Apartment, Oakland Quay E14",51.496836,-0.015884,9/1/2021,0,0,0,1,1,0,0,0,1,1,Property,298
355000,Property for sale ,"Apartment, Oakland Quay E14",51.496836,-0.015884,9/1/2021,0,0,0,1,1,0,0,0,1,1,Property,299
360000,Property for sale ,"Baltimore Wharf, London E14",51.496836,-0.015884,9/1/2021,0,0,0,1,0,0,0,0,1,0,Property,300
225000,1 bed flat for sale ,"Peerless Drive, Harefield, Middlesex UB9",51.589767,-0.484589,9/1/2021,0,0,0,0,0,0,1,1,0,0,flat,301
725000,4 bed terraced house for sale ,"Woodville Road, South Woodford E18",51.592098,0.031267,9/1/2021,4,2,"1,425",0,1,0,0,4,2,1,terraced house,302
9e+05,4 bed maisonette for sale ,"Kentish Town Road, London NW1",51.5432,-0.141484,9/1/2021,4,2,0,0,1,0,0,4,2,1,maisonette,303
475000,3 bed town house for sale ,"Addison Road, London SE25",51.39756,-0.069923,9/1/2021,3,0,0,0,0,0,0,3,0,0,town house,304
525000,4 bed terraced house for sale ,"Kimberley Road, Croydon, Surrey CR0",51.390919,-0.104943,9/1/2021,4,0,0,0,0,0,0,4,0,0,terraced house,305
6e+05,3 bed end terrace house for sale ,"Dartmouth Road, Ruislip, Middlesex HA4",51.562574,-0.407789,9/1/2021,3,0,0,0,0,0,0,3,0,0,end terrace house,306
550000,2 bed flat for sale ,"Walsingham House, 1331 High Road, Whetstone N20",51.631976,-0.175878,9/1/2021,2,2,0,0,1,0,0,2,2,1,flat,307
1600000,Detached house for sale ,"Torrington Park, Finchley N12",51.616887,-0.168351,9/1/2021,0,0,0,0,0,0,0,0,0,0,Detached,308
1e+06,3 bed flat for sale ,"Cleveland Road, London N1",51.540272,-0.086834,9/1/2021,3,2,0,0,1,0,0,3,2,1,flat,309
475000,4 bed terraced house for sale ,"Hereford Way, Chessington, Surrey, . KT9",51.366264,-0.313402,9/1/2021,4,0,0,1,0,2,0,4,1,2,terraced house,310
2150000,5 bed terraced house for sale ,"Fairlawn Grove, London W4",51.495708,-0.268234,9/1/2021,5,2,0,0,0,2,0,5,2,2,terraced house,311
635000,2 bed terraced house for sale ,"Townsend Road, London N15",51.581134,-0.070945,9/1/2021,2,0,0,1,1,0,0,2,1,1,terraced house,312
1100000,2 bed flat for sale ,"Evershed Walk, London W4",51.497103,-0.265818,9/1/2021,2,2,0,0,1,0,0,2,2,1,flat,313
3e+05,2 bed flat for sale ,"South Lane, New Malden KT3",51.38634,-0.255967,9/1/2021,2,0,0,1,1,0,0,2,1,1,flat,314
899950,6 bed semi-detached house for sale ,"Timbercroft, Epsom KT19",51.369661,-0.262764,9/1/2021,6,4,0,0,0,3,0,6,4,3,semi-detached house,315
4e+05,2 bed maisonette for sale ,"Whittington Way, Pinner HA5",51.585604,-0.3801,9/1/2021,2,0,0,1,1,0,0,2,1,1,maisonette,316
250000,1 bed flat for sale ,"Badgers Close, Harrow, Middlesex HA1",51.580136,-0.347834,9/1/2021,0,0,0,1,1,0,1,1,1,1,flat,317
9e+05,3 bed detached house for sale ,"Tyburn Lane, Harrow HA1",51.577294,-0.333946,9/1/2021,3,2,0,0,1,0,0,3,2,1,detached house,318
469950,3 bed semi-detached house for sale ,"Lower Court Road, Epsom, Surrey. KT19",51.342365,-0.271019,9/1/2021,3,2,0,0,0,2,0,3,2,2,semi-detached house,319
7e+05,2 bed property for sale ,"Blue Anchor Lane, London SE16",51.493317,-0.063562,9/1/2021,2,2,0,0,0,0,0,2,2,0,property,320
750000,2 bed flat for sale ,"Newton Road, Notting Hill, London, UK W2",51.515884,-0.190739,9/1/2021,2,0,0,1,1,0,0,2,1,1,flat,321
1190000,2 bed flat for sale ,"Dolben Court, Montaigne Close, London SW1P",51.492217,-0.130983,9/1/2021,2,2,0,0,1,0,0,2,2,1,flat,322
121000,1 bed flat for sale ,"Windsor House, 2 Mountfield Way, St Mary Cray, Orpington, Greater London BR5",51.393111,0.114861,9/1/2021,0,0,0,0,0,0,1,1,0,0,flat,323
79500,1 bed flat for sale ,"Panta House, 4 Old Barn Lane, Kenley, Surrey CR8",51.32017467,-0.101534712,9/1/2021,0,0,0,0,0,0,1,1,0,0,flat,324
590000,2 bed flat for sale ,"Coster Avenue, London N4",51.56621998,-0.096520303,9/1/2021,2,0,711,1,1,0,0,2,1,1,flat,325
350000,1 bed flat for sale ,"Allfarthing Lane, London SW18",51.452735,-0.185677,9/1/2021,0,0,0,1,1,0,1,1,1,1,flat,326
8e+05,2 bed flat for sale ,"St. John Street, London EC1V",51.52473,-0.103876,9/1/2021,2,2,0,0,0,0,0,2,2,0,flat,327
265000,1 bed flat for sale ,"Camden Road, Sutton SM1",51.362602,-0.198506,9/1/2021,0,0,0,1,1,0,1,1,1,1,flat,328
350000,1 bed flat for sale ,"Saffron Court, 17 Ebony Crescent, Cockfosters EN4",51.644297,-0.147271,9/1/2021,0,0,0,1,1,0,1,1,1,1,flat,329
1200000,3 bed bungalow for sale ,"Parkstone Avenue, Hornchurch RM11",51.569599,0.230796,9/1/2021,3,2,0,0,0,2,0,3,2,2,bungalow,330
539950,4 bed flat for sale ,"Birken Court, Rickmansworth Road, Northwood, Middlesex HA6",51.61845,-0.44329,9/1/2021,4,3,0,0,1,0,0,4,3,1,flat,331
1720000,2 bed flat for sale ,"Bondway, London SW8",51.483481,-0.125103,9/1/2021,2,2,0,0,1,0,0,2,2,1,flat,332
5e+06,Property for sale ,"Canonbury Lane, London N1",51.543019,-0.102092,9/1/2021,0,0,0,0,0,0,0,0,0,0,Property,333
2e+06,3 bed terraced house for sale ,"Felden Street, London SW6",51.475595,-0.207939,9/1/2021,3,3,0,0,1,0,0,3,3,1,terraced house,334
650000,2 bed semi-detached house for sale ,"Falcon Court, Albert Road, London E18",51.591105,0.032485,9/1/2021,2,0,0,0,0,0,0,2,0,0,semi-detached house,335
1400000,3 bed flat for sale ,"St. Gabriel Walk, London SE1",51.493488,-0.101543,9/1/2021,3,2,0,0,1,0,0,3,2,1,flat,336
875000,2 bed flat for sale ,"Montpelier Row, Blackheath, London SE3",51.467382,0.009114,9/1/2021,2,2,0,0,1,0,0,2,2,1,flat,337
775000,1 bed flat for sale ,"Walton-Clark House, Brigade Court, Southwark SE1",51.501745,-0.098385,9/1/2021,0,0,0,0,1,0,1,1,0,1,flat,338
2050000,3 bed flat for sale ,"York Street, London W1H",51.519915,-0.159951,9/1/2021,3,3,0,0,0,2,0,3,3,2,flat,339
1150000,3 bed terraced house for sale ,"Princes Road, Richmond, Surrey TW10",51.460649,-0.294753,9/1/2021,3,2,0,0,0,0,0,3,2,0,terraced house,340
447500,2 bed flat for sale ,"Central Square, Ealing W7",51.52303,-0.33181,9/1/2021,2,2,720,0,1,0,0,2,2,1,flat,341
750000,3 bed detached house for sale ,"Manor Road, Romford RM1",51.575045,0.196783,9/1/2021,3,2,0,0,0,3,0,3,2,3,detached house,342
450000,3 bed property for sale ,"Chandos Road, Stratford, London E15",51.550125,-0.003115,9/1/2021,3,0,0,1,1,0,0,3,1,1,property,343
4e+05,3 bed maisonette for sale ,"Meredith Street, Plaistow, London E13",51.524641,0.021095,9/1/2021,3,0,0,1,1,0,0,3,1,1,maisonette,344
1900000,5 bed terraced house for sale ,"Lonsdale Road, Barnes, London SW13",51.474449,-0.250593,9/1/2021,5,3,0,0,0,2,0,5,3,2,terraced house,345
460000,2 bed flat for sale ,"Cena House, Purley, Kenley CR8",51.32219,-0.106082,9/1/2021,2,2,0,0,1,0,0,2,2,1,flat,346
5e+05,2 bed flat for sale ,"Cena House, Purley, Kenley CR8",51.32219,-0.106082,9/1/2021,2,2,0,0,1,0,0,2,2,1,flat,347
3e+05,1 bed flat for sale ,"Hook Road, Surbiton KT6",51.380592,-0.301357,9/1/2021,0,0,0,1,1,0,1,1,1,1,flat,348
220000,1 bed flat for sale ,"Edison Road, Welling, Kent DA16",51.469811,0.096897,9/1/2021,0,0,0,1,1,0,1,1,1,1,flat,349
375000,2 bed semi-detached house for sale ,"Hook Lane, South Welling, Kent DA16",51.460241,0.104055,9/1/2021,2,0,0,1,0,2,0,2,1,2,semi-detached house,350
365000,2 bed flat for sale ,"Milton Road, Harrow HA1",51.589904,-0.336317,9/1/2021,2,0,0,1,1,0,0,2,1,1,flat,351
750000,3 bed flat for sale ,"Tyssen Street, Hackney, London E8",51.54668,-0.071335,9/1/2021,3,2,0,0,1,0,0,3,2,1,flat,352
275000,Studio for sale ,"Adelaide Road, Swiss Cottage, London NW3",51.542482,-0.171341,9/1/2021,0,0,0,1,1,0,0,0,1,1,Studio,353
425000,2 bed flat for sale ,"Oliver Road, Leyton, London E10",51.561444,-0.015213,9/1/2021,2,2,0,0,1,0,0,2,2,1,flat,354
775000,2 bed flat for sale ,"Bloomsbury Terrace, 7 Huntley Street, Bloomsbury, London WC1E",51.521452,-0.133317,9/1/2021,2,0,0,1,1,0,0,2,1,1,flat,355
3250000,2 bed flat for sale ,"Soho Thirteen Apartments, 20 Ingestre Place, Soho, London W1F",51.513524,-0.135663,9/1/2021,2,2,0,0,1,0,0,2,2,1,flat,356
415000,1 bed flat for sale ,"Bramah Road, London SW9",51.473831,-0.108565,9/1/2021,0,0,0,1,1,0,1,1,1,1,flat,357
345000,1 bed terraced house for sale ,"Palace Road, Bromley BR1",51.40968,0.020537,9/1/2021,0,0,0,1,1,0,1,1,1,1,terraced house,358
4e+05,2 bed flat for sale ,"Blackshaw Road, London SW17",51.423806,-0.173693,9/1/2021,2,0,0,1,1,0,0,2,1,1,flat,359
0,5 bed property for sale ,"Moore Park Road, London SW6",51.480007,-0.189815,9/1/2021,5,5,"2,981",0,0,2,0,5,5,2,property,360
175000,2 bed terraced house for sale ,"67 Sydney Road, Sutton, Surrey SM1",51.367027,-0.20181,9/1/2021,2,0,0,0,0,0,0,2,0,0,terraced house,361
80000,1 bed flat for sale ,"Flat 67 Durrington Tower, Wandsworth Road, London SW8",51.47086,-0.140513,9/1/2021,0,0,0,0,0,0,1,1,0,0,flat,362
485000,3 bed terraced house for sale ,"Goat Lane, Enfield EN1",51.666515,-0.065055,9/1/2021,3,0,0,1,0,2,0,3,1,2,terraced house,363
1225000,3 bed block of flats for sale ,"Finchley, London N3",51.6,-0.195,9/1/2021,3,3,"1,741",0,1,0,0,3,3,1,block of flats,364
450000,3 bed flat for sale ,"Opal Street, London SE11",51.490346,-0.104515,9/1/2021,3,0,0,1,1,0,0,3,1,1,flat,365
1400000,2 bed flat for sale ,"Wellington House, 70 Buckingham Gate, London SW1E",51.498966,-0.137492,9/1/2021,2,2,0,0,0,2,0,2,2,2,flat,366
475000,2 bed end terrace house for sale ,"St. Annes Road, Wembley HA0",51.553867,-0.30083,9/1/2021,2,0,0,1,0,2,0,2,1,2,end terrace house,367
3300000,4 bed terraced house for sale ,"Park View, Parkside, Wimbledon SW19",51.43359571,-0.219362153,9/1/2021,4,3,0,0,0,3,0,4,3,3,terraced house,368
2350000,5 bed detached house for sale ,"Montana Road, Wimbledon, London SW20",51.413157,-0.226114,9/1/2021,5,2,0,0,0,3,0,5,2,3,detached house,369
1295000,2 bed flat for sale ,"Lingfield Road, Wimbledon, London SW19",51.424385,-0.219336,9/1/2021,2,2,0,0,0,2,0,2,2,2,flat,370
4450000,3 bed terraced house for sale ,"Meard Street, Soho, London W1F",51.5132,-0.133,9/1/2021,3,2,"2,285",0,0,3,0,3,2,3,terraced house,371
450000,Studio for sale ,"Bezier Apartments, 91 City Road, Shoreditch, London EC1Y",51.524915,-0.087002,9/1/2021,0,0,0,1,1,0,0,0,1,1,Studio,372
63750,1 bed flat for sale ,"Mayes View, Meadow Road, Barking IG11",51.536127,0.103229,9/1/2021,0,0,0,1,1,0,1,1,1,1,flat,373
63750,1 bed flat for sale ,"Mayes View, Meadow Road, Barking IG11",51.536127,0.103229,9/1/2021,0,0,0,1,1,0,1,1,1,1,flat,374
259995,1 bed flat for sale ,"Gilbert Street, Enfield EN3",51.671993,-0.04399,9/1/2021,0,0,0,1,1,0,1,1,1,1,flat,375
4300000,5 bed terraced house for sale ,"Retreat Road, Richmond, Surrey TW9",51.459355,-0.307857,9/1/2021,5,5,0,0,0,3,0,5,5,3,terraced house,376
359999,3 bed flat for sale ,"Marcus Court, London E15",51.535973,0.009451,9/1/2021,3,0,0,1,1,0,0,3,1,1,flat,377
2250000,5 bed detached house for sale ,"Erpingham Road, Putney, London SW15",51.466437,-0.227216,9/1/2021,5,3,0,0,0,4,0,5,3,4,detached house,378
1600000,4 bed terraced house for sale ,"Kyrle Road, London SW11",51.455459,-0.156234,9/1/2021,4,2,0,0,1,0,0,4,2,1,terraced house,379
850000,2 bed flat for sale ,"Beaufort Street, Chelsea, London SW3",51.483372,-0.174048,9/1/2021,2,0,694,1,1,0,0,2,1,1,flat,380
6250000,5 bed mews house for sale ,"Salisbury Place, Marylebone, London W1H",51.520975,-0.160033,9/1/2021,5,5,0,0,0,3,0,5,5,3,mews house,381
995000,2 bed flat for sale ,"The Claves, Millbrook Park, Mill Hill, London NW7",51.61072,-0.209498,9/1/2021,2,2,0,0,1,0,0,2,2,1,flat,382
807000,Studio for sale ,"Bondway, London SW8",51.483481,-0.125103,9/1/2021,0,0,0,1,1,0,0,0,1,1,Studio,383
940000,1 bed flat for sale ,"Bondway, London SW8",51.483481,-0.125103,9/1/2021,0,0,0,1,1,0,1,1,1,1,flat,384
949950,4 bed semi-detached house for sale ,"Greystoke Avenue, Pinner HA5",51.596096,-0.364675,9/1/2021,4,2,0,0,0,2,0,4,2,2,semi-detached house,385
410000,1 bed flat for sale ,"Highbury Hill, London N5",51.556632,-0.103632,9/1/2021,0,0,0,1,1,0,1,1,1,1,flat,386
2950000,4 bed flat for sale ,"Wynnstay Gardens, Allen Street, London W8",51.499357,-0.195871,9/1/2021,4,2,0,0,0,2,0,4,2,2,flat,387
1250000,6 bed semi-detached house for sale ,"Briar Avenue, London SW16",51.418437,-0.118936,9/1/2021,6,4,0,0,0,2,0,6,4,2,semi-detached house,388
1395000,4 bed terraced house for sale ,"Fullerton Road, Wandsworth SW18",51.458254,-0.18674,9/1/2021,4,2,"1,582",0,1,0,0,4,2,1,terraced house,389
950000,2 bed property for sale ,"Independent Place, London E8",51.551649,-0.071038,9/1/2021,2,2,0,0,1,0,0,2,2,1,property,390
280000,1 bed flat for sale ,"Wales Avenue, Carshalton SM5",51.361511,-0.170704,9/1/2021,0,0,0,1,1,0,1,1,1,1,flat,391
2095000,3 bed flat for sale ,"Randolph Avenue, Maida Vale, London W9",51.531741,-0.187872,9/1/2021,3,2,0,0,1,0,0,3,2,1,flat,392
730000,2 bed flat for sale ,"Harland House, 30-34 Woodfield Place, Maida Vale, London W9",51.523655,-0.201167,9/1/2021,2,2,0,0,1,0,0,2,2,1,flat,393
2850000,6 bed terraced house for sale ,"Stokenchurch Street, Peterborough Estate, Fulham, London SW6",51.475075,-0.194006,9/1/2021,6,4,0,0,0,3,0,6,4,3,terraced house,394
395000,2 bed property for sale ,"Rawson Street, London SW11",51.474822,-0.151349,9/1/2021,2,0,0,1,1,0,0,2,1,1,property,395
330000,1 bed flat for sale ,"Selcroft Road, Purley CR8",51.337392,-0.108702,9/1/2021,0,0,0,1,1,0,1,1,1,1,flat,396
1295000,4 bed semi-detached house for sale ,"Williams Lane, East Sheen SW14",51.470426,-0.271596,9/1/2021,4,3,0,0,1,0,0,4,3,1,semi-detached house,397
349950,1 bed flat for sale ,"Sheen Lane, London SW14",51.466941,-0.266976,9/1/2021,0,0,0,1,1,0,1,1,1,1,flat,398
499950,2 bed flat for sale ,"Deanhill Court, Upper Richmond Road West SW14",51.463391,-0.276281,9/1/2021,2,0,0,1,1,0,0,2,1,1,flat,399
470000,1 bed flat for sale ,"Sheen Court, Richmond TW10",51.463788,-0.282471,9/1/2021,0,0,0,1,1,0,1,1,1,1,flat,400
685000,3 bed terraced house for sale ,"Abbey Road, St. John's Wood NW8, London,",51.537737,-0.187158,9/1/2021,3,2,0,0,1,0,0,3,2,1,terraced house,401
795000,2 bed property for sale ,"Elmbourne Road, London SW17",51.434816,-0.150764,9/1/2021,2,2,0,0,1,0,0,2,2,1,property,402
925000,3 bed maisonette for sale ,"Tantallon Road, London SW12",51.445328,-0.156455,9/1/2021,3,2,0,0,1,0,0,3,2,1,maisonette,403
6e+05,4 bed semi-detached house for sale ,"Beaumont Road, Petts Wood, Orpington BR5",51.383499,0.078068,9/1/2021,4,2,0,0,1,0,0,4,2,1,semi-detached house,404
4e+06,8 bed detached house for sale ,"Mount Avenue, London W5",51.522665,-0.309374,9/1/2021,8,4,0,0,0,4,0,8,4,4,detached house,405
550000,2 bed flat for sale ,"Point Wharf Lane, Ferry Quays, Brentford TW8",51.483104,-0.301598,9/1/2021,2,2,0,0,1,0,0,2,2,1,flat,406
1500000,5 bed detached house for sale ,"Dene Road, Northwood, Middlesex HA6",51.613566,-0.435065,9/1/2021,5,3,0,0,0,3,0,5,3,3,detached house,407
2750000,2 bed flat for sale ,"Shoreditch High Street, London E1",51.526418,-0.078275,9/1/2021,2,0,0,1,1,0,0,2,1,1,flat,408
895000,5 bed terraced house for sale ,"Graveney Road, London SW17",51.429656,-0.169242,9/1/2021,5,2,0,0,0,2,0,5,2,2,terraced house,409
375000,Studio for sale ,"Hatherley Grove, London W2",51.516361,-0.190025,9/1/2021,0,0,0,1,0,0,0,0,1,0,Studio,410
525000,2 bed flat for sale ,"Royal Crest Avenue, Royal Wharf, London E16",51.500852,0.029029,9/1/2021,2,2,0,0,1,0,0,2,2,1,flat,411
650000,4 bed end terrace house for sale ,"Montague Road, Hanwell W7",51.507236,-0.33487,9/1/2021,4,2,0,0,0,2,0,4,2,2,end terrace house,412
2100000,5 bed terraced house for sale ,"Bromfelde Road, London SW4",51.468331,-0.130893,9/1/2021,5,2,0,0,0,5,0,5,2,5,terraced house,413
460000,1 bed flat for sale ,"Lurline Gardens, London SW11",51.47573,-0.15301,9/1/2021,0,0,496,1,1,0,1,1,1,1,flat,414
995000,2 bed flat for sale ,"Nevern Square, Earl's Court, London SW5",51.492404,-0.196376,9/1/2021,2,2,0,0,1,0,0,2,2,1,flat,415
525000,1 bed flat for sale ,"Royal Crest Avenue, Royal Wharf, London E16",51.500852,0.029029,9/1/2021,0,2,0,0,1,0,1,1,2,1,flat,416
685000,1 bed flat for sale ,"Westgate Terrace, London SW10",51.486882,-0.188729,9/1/2021,0,0,0,1,1,0,1,1,1,1,flat,417
715000,4 bed end terrace house for sale ,"Hadley Gardens, Southall UB2",51.492537,-0.378481,9/1/2021,4,3,0,0,0,2,0,4,3,2,end terrace house,418
875000,4 bed end terrace house for sale ,"Boston Manor Road, Brentford TW8",51.494443,-0.320315,9/1/2021,4,2,0,0,0,2,0,4,2,2,end terrace house,419
525000,1 bed flat for sale ,"Elm Bank Mansions, The Terrace, Barnes, London SW13",51.471605,-0.253452,9/1/2021,0,0,0,1,1,0,1,1,1,1,flat,420
3550000,5 bed end terrace house for sale ,"Park View, Parkside, Wimbledon SW19",51.43359571,-0.219362153,9/1/2021,5,5,0,0,0,4,0,5,5,4,end terrace house,421
850000,2 bed flat for sale ,"Bolingbroke Road, London W14",51.500738,-0.216715,9/1/2021,2,0,0,1,1,0,0,2,1,1,flat,422
4e+05,2 bed flat for sale ,"Alexandra Road, London N10",51.604161,-0.142852,9/1/2021,2,0,0,1,1,0,0,2,1,1,flat,423
1350000,3 bed flat for sale ,"Nassau Road, Barnes, London SW13",51.474765,-0.246434,9/1/2021,3,2,0,0,1,0,0,3,2,1,flat,424
1395000,4 bed terraced house for sale ,"Averill Street, London W6",51.484478,-0.21848,9/1/2021,4,2,0,0,1,0,0,4,2,1,terraced house,425
1350000,3 bed terraced house for sale ,"Hurlingham Square, Peterborough Road, London SW6",51.467091,-0.194638,9/1/2021,3,3,0,0,1,0,0,3,3,1,terraced house,426
6e+05,4 bed semi-detached house for sale ,"Mayday Gardens, London SE3",51.467632,0.046114,9/1/2021,4,2,0,0,0,2,0,4,2,2,semi-detached house,427
450000,1 bed flat for sale ,"Leighton Road, Kentish Town, London NW5",51.550571,-0.133958,9/1/2021,0,0,550,1,1,0,1,1,1,1,flat,428
350000,2 bed flat for sale ,"Claremont Road, Forest Gate, London E7",51.549228,0.037741,9/1/2021,2,0,0,1,1,0,0,2,1,1,flat,429
615000,3 bed semi-detached house for sale ,"Kings Close, London NW4",51.588683,-0.212024,9/1/2021,3,0,952,1,1,0,0,3,1,1,semi-detached house,430
310000,2 bed flat for sale ,"Attewood Road, Northolt UB5",51.54956,-0.382758,9/1/2021,2,0,0,1,1,0,0,2,1,1,flat,431
4e+05,2 bed maisonette for sale ,"Markhouse Road, Walthamstow, London E17",51.571053,-0.026258,9/1/2021,2,0,0,1,1,0,0,2,1,1,maisonette,432
450000,1 bed flat for sale ,"Bramah Road, Oval SW9",51.474065,-0.109043,9/1/2021,0,0,700,1,1,0,1,1,1,1,flat,433
885000,3 bed town house for sale ,"Lechmere Road, Willesden NW2",51.547698,-0.230329,9/1/2021,3,3,"1,211",0,1,0,0,3,3,1,town house,434
1250000,4 bed terraced house for sale ,"Coldfall Avenue, London N10",51.5969,-0.153336,9/1/2021,4,2,0,0,0,2,0,4,2,2,terraced house,435
475000,1 bed flat for sale ,"Fairhazel Gardens, South Hampstead NW6",51.542576,-0.181716,9/1/2021,0,0,416,1,1,0,1,1,1,1,flat,436
1595000,4 bed terraced house for sale ,"Bracewell Road, Ladbroke Grove W10",51.520651,-0.22706,9/1/2021,4,2,0,0,0,2,0,4,2,2,terraced house,437
285000,2 bed maisonette for sale ,"Middle Park Avenue, Eltham SE9",51.448622,0.035779,9/1/2021,2,0,0,1,1,0,0,2,1,1,maisonette,438
1250000,3 bed terraced house for sale ,"Perth Road, London N4",51.568653,-0.1086,9/1/2021,3,2,0,0,1,0,0,3,2,1,terraced house,439
725000,3 bed terraced house for sale ,"Beechfield Road, London N4",51.577701,-0.089062,9/1/2021,3,0,0,1,1,0,0,3,1,1,terraced house,440
325000,2 bed flat for sale ,"Errol Gardens, New Malden KT3",51.398193,-0.24278,9/1/2021,2,0,0,1,1,0,0,2,1,1,flat,441
265000,1 bed flat for sale ,"Minstrel Gardens, Surbiton KT5",51.399064,-0.292587,9/1/2021,0,0,0,1,1,0,1,1,1,1,flat,442
250000,2 bed maisonette for sale ,"Green Lanes, London N21",51.633945,-0.094513,9/1/2021,2,0,0,1,1,0,0,2,1,1,maisonette,443
365000,1 bed flat for sale ,"Gilmore Road, Lewisham SE13",51.45949,-0.004807,9/1/2021,0,0,0,1,1,0,1,1,1,1,flat,444
475000,2 bed flat for sale ,"Lovelace Gardens, Surbiton KT6",51.38892,-0.309278,9/1/2021,2,0,0,1,1,0,0,2,1,1,flat,445
3e+05,1 bed flat for sale ,"Gideon Road, London SW11",51.466278,-0.154574,9/1/2021,0,0,0,1,1,0,1,1,1,1,flat,446
180000,1 bed property for sale ,"North Street, Bromley BR1",51.408058,0.015874,9/1/2021,0,0,0,1,1,0,1,1,1,1,property,447
525000,3 bed terraced house for sale ,"Grosvenor Road, Southall UB2",51.5013,-0.377653,9/1/2021,3,0,0,1,0,3,0,3,1,3,terraced house,448
480000,2 bed flat for sale ,"Moorhen Drive, Edgware NW9",51.576779,-0.242524,9/1/2021,2,2,0,0,1,0,0,2,2,1,flat,449
650000,4 bed terraced house for sale ,"Bushey Road, London SW20",51.407444,-0.220392,9/1/2021,4,2,0,0,0,2,0,4,2,2,terraced house,450
525000,2 bed terraced house for sale ,"Spencer Road, Walthamstow, London E17",51.595948,-0.004983,9/1/2021,2,0,"1,074",0,0,0,0,2,0,0,terraced house,451
7e+05,3 bed terraced house for sale ,"Peterborough Road, Leyton E10",51.578927,-0.002452,9/1/2021,3,0,0,1,0,0,0,3,1,0,terraced house,452
825000,4 bed end terrace house for sale ,"Westmount Road, Eltham Park SE9",51.461454,0.058014,9/1/2021,4,2,0,0,0,2,0,4,2,2,end terrace house,453
999950,4 bed semi-detached house for sale ,"Tentelow Lane, Norwood Green UB2",51.502052,-0.359537,9/1/2021,4,3,"1,970",0,1,0,0,4,3,1,semi-detached house,454
295000,2 bed maisonette for sale ,"Waterside Close, Northolt UB5",51.53405,-0.373229,9/1/2021,2,0,0,1,1,0,0,2,1,1,maisonette,455
465000,2 bed flat for sale ,"Frogmore, London SW18",51.45905,-0.197069,9/1/2021,2,0,"6,383",1,1,0,0,2,1,1,flat,456
475000,3 bed terraced house for sale ,"Princes Avenue, Greenford UB6",51.519705,-0.359918,9/1/2021,3,0,0,1,0,2,0,3,1,2,terraced house,457
295000,2 bed flat for sale ,"Waltham Road, Southall, Middlesex UB2",51.501247,-0.385208,9/1/2021,2,0,0,1,1,0,0,2,1,1,flat,458
450000,2 bed flat for sale ,"Acton Lane, London W4",51.495267,-0.266378,9/1/2021,2,0,0,1,1,0,0,2,1,1,flat,459
315000,2 bed flat for sale ,"Green Lane, Chessington KT9",51.3559,-0.300656,9/1/2021,2,0,0,1,0,0,0,2,1,0,flat,460
2750000,3 bed terraced house for sale ,"Gloucester Road, London SW7",51.499146,-0.183993,9/1/2021,3,2,0,0,0,2,0,3,2,2,terraced house,461
7e+05,3 bed terraced house for sale ,"Jersey Road, Leytonstone E11",51.565212,-0.00183,9/1/2021,3,0,0,1,1,0,0,3,1,1,terraced house,462
550000,4 bed property for sale ,"Stratton Drive, Barking, Essex IG11",51.543584,0.099761,9/1/2021,4,0,0,1,1,0,0,4,1,1,property,463
480000,1 bed flat for sale ,"Cambium, 15 Victoria Dr, London SW19",51.447972,-0.219901,9/1/2021,0,0,549,1,1,0,1,1,1,1,flat,464
750000,3 bed terraced house for sale ,"Wellfield Road, London SW16",51.42836,-0.121966,9/1/2021,3,0,0,1,1,0,0,3,1,1,terraced house,465
2850000,3 bed flat for sale ,"Marshall Street, London W1F",51.513736,-0.138113,9/1/2021,3,2,"1,755",0,1,0,0,3,2,1,flat,466
4e+05,2 bed flat for sale ,"Glasshouse Fields, London E1W",51.510733,-0.046526,9/1/2021,2,0,0,1,1,0,0,2,1,1,flat,467
425000,3 bed end terrace house for sale ,"Ennerdale Close, Feltham TW14",51.447266,-0.424511,9/1/2021,3,0,0,1,1,0,0,3,1,1,end terrace house,468
375000,2 bed semi-detached house for sale ,"Devonshire Road, Bexleyheath DA6",51.457208,0.13449,9/1/2021,2,0,0,1,1,0,0,2,1,1,semi-detached house,469
680000,2 bed flat for sale ,"Arena Tower, 25 Crossharbour Plaza, London E14",51.497976,-0.015302,9/1/2021,2,2,0,0,1,0,0,2,2,1,flat,470
550000,3 bed bungalow for sale ,"The Bramblings, London E4",51.61636,0.00507,9/1/2021,3,0,0,1,1,0,0,3,1,1,bungalow,471
6e+05,2 bed flat for sale ,"Lady Margaret Road, London N19",51.556971,-0.135478,9/1/2021,2,2,0,0,1,0,0,2,2,1,flat,472
525000,3 bed flat for sale ,"Hungerford Road, London N7",51.551291,-0.123361,9/1/2021,3,0,0,1,0,2,0,3,1,2,flat,473
335000,2 bed maisonette for sale ,"Albion Road, Sutton, Surrey SM2",51.355506,-0.182138,9/1/2021,2,0,0,1,1,0,0,2,1,1,maisonette,474
145000,1 bed flat for sale ,"Station Road, Sutton, Surrey SM2",51.344111,-0.201873,9/1/2021,0,0,0,1,1,0,1,1,1,1,flat,475
1800000,4 bed terraced house for sale ,"Alba Place, London W11",51.517275,-0.205612,9/1/2021,4,2,0,0,0,2,0,4,2,2,terraced house,476
325000,1 bed flat for sale ,"Kelmscott Court, Aran Drive, Stanmore HA7",51.619397,-0.308252,9/1/2021,0,0,0,1,1,0,1,1,1,1,flat,477
550000,2 bed flat for sale ,"Oxborough House, Eltringham Street, Wandsworth, London SW18",51.462211,-0.184026,9/1/2021,2,2,0,0,1,0,0,2,2,1,flat,478
2450000,3 bed flat for sale ,"Drayton Gardens, Chelsea, London SW10",51.488349,-0.180662,9/1/2021,3,3,"1,406",0,1,0,0,3,3,1,flat,479
425000,3 bed semi-detached house for sale ,"Welton Road, London SE18",51.473916,0.089062,9/1/2021,3,0,0,1,1,0,0,3,1,1,semi-detached house,480
6e+05,4 bed terraced house for sale ,"Westwood Road, Ilford IG3",51.567778,0.10551,9/1/2021,4,3,0,0,1,0,0,4,3,1,terraced house,481
525000,3 bed terraced house for sale ,"Ferrymead Avenue, Greenford UB6",51.5344,-0.368941,9/1/2021,3,2,0,0,1,0,0,3,2,1,terraced house,482
250000,2 bed flat for sale ,"Autumn Drive, Sutton SM2",51.349123,-0.19678,9/1/2021,2,0,0,1,0,0,0,2,1,0,flat,483
439000,1 bed flat for sale ,"Inglis Way, London NW7",51.61091535,-0.213386632,9/1/2021,0,0,630,1,1,0,1,1,1,1,flat,484
221500,2 bed maisonette for sale ,"Albion Road, Sutton, Surrey SM2",51.355506,-0.182138,9/1/2021,2,0,0,1,1,0,0,2,1,1,maisonette,485
950000,3 bed detached house for sale ,"Humber Road, London SE3",51.483697,0.01843,9/1/2021,3,2,0,0,1,0,0,3,2,1,detached house,486
375000,1 bed property for sale ,"Derry Court, Streatham High Road SW16",51.424508,-0.13185,9/1/2021,0,0,665,1,1,0,1,1,1,1,property,487
725000,2 bed flat for sale ,"Bastwick Street, Clerkenwell, London EC1V",51.525021,-0.097289,9/1/2021,2,2,804,0,1,0,0,2,2,1,flat,488
465000,1 bed flat for sale ,"Orchard Wharf, Poplar E14",51.511665,0.001089,9/1/2021,0,0,0,1,1,0,1,1,1,1,flat,489
2050000,2 bed flat for sale ,"1 Blackfriars Road, Southbank SE1",51.507727,-0.105072,9/1/2021,2,2,"1,480",0,1,0,0,2,2,1,flat,490
6e+05,3 bed end terrace house for sale ,"Roding Lane South, Ilford IG4",51.58085,0.044123,9/1/2021,3,0,0,1,1,0,0,3,1,1,end terrace house,491
750000,5 bed semi-detached house for sale ,"Virginia Gardens, Barkingside, Ilford IG6",51.591791,0.086685,9/1/2021,5,3,0,0,1,0,0,5,3,1,semi-detached house,492
275000,1 bed maisonette for sale ,"Fawe Park Road, London SW15",51.460675,-0.202807,9/1/2021,0,0,0,1,1,0,1,1,1,1,maisonette,493
435000,3 bed terraced house for sale ,"Finlays Close, Chessington KT9",51.36619,-0.288423,9/1/2021,3,0,0,1,0,0,0,3,1,0,terraced house,494
475000,3 bed end terrace house for sale ,"Moorland Road, Harmondsworth, West Drayton UB7",51.487197,-0.482297,9/1/2021,3,0,0,1,1,0,0,3,1,1,end terrace house,495
450000,1 bed flat for sale ,"Ashton Reach, Surrey Quays SE16",51.491605,-0.036373,9/1/2021,0,0,462,1,1,0,1,1,1,1,flat,496
260000,1 bed maisonette for sale ,"Whitton Avenue West, Northolt UB5",51.554089,-0.352709,9/1/2021,0,0,0,1,1,0,1,1,1,1,maisonette,497
475000,2 bed flat for sale ,"Grange Road, London Bridge SE1",51.496121,-0.080443,9/1/2021,2,2,0,0,1,0,0,2,2,1,flat,498
5e+05,4 bed flat for sale ,"Longfellow Way, Bermondsey SE1",51.490123,-0.073838,9/1/2021,4,0,852,1,1,0,0,4,1,1,flat,499
850000,3 bed flat for sale ,"Creffield Road, London W5",51.511699,-0.286491,9/1/2021,3,3,"1,477",0,1,0,0,3,3,1,flat,500
340000,3 bed flat for sale ,"Wandle House, Brangbourne Road BR1",51.423848,-0.006011,9/1/2021,3,0,0,1,1,0,0,3,1,1,flat,501
305000,2 bed maisonette for sale ,"Hambledon Gardens, London SE25",51.40085,-0.079144,9/1/2021,2,0,0,1,1,0,0,2,1,1,maisonette,502
389950,2 bed flat for sale ,"Hubbards Close, Uxbridge UB8",51.520637,-0.450488,9/1/2021,2,2,0,0,1,0,0,2,2,1,flat,503
575000,2 bed flat for sale ,"Edgeley Road, London SW4",51.46545,-0.134132,9/1/2021,2,0,0,1,1,0,0,2,1,1,flat,504
575000,1 bed flat for sale ,"Tabard Street, London SE1",51.499645,-0.091303,9/1/2021,0,0,0,1,1,0,1,1,1,1,flat,505
310000,1 bed flat for sale ,"Highwood Close, London SE22",51.44164,-0.065993,9/1/2021,0,0,0,1,1,0,1,1,1,1,flat,506
799950,3 bed flat for sale ,"Oxford Road, London NW6",51.535808,-0.191957,9/1/2021,3,2,"1,364",0,1,0,0,3,2,1,flat,507
475000,2 bed flat for sale ,"Eric Street, London E3",51.521526,-0.03267,9/1/2021,2,2,0,0,1,0,0,2,2,1,flat,508
415000,2 bed flat for sale ,"Rushmead, Ham, Richmond TW10",51.435623,-0.320187,9/1/2021,2,0,0,1,1,0,0,2,1,1,flat,509
395000,1 bed flat for sale ,"River Heights, 90 High Street, Stratford, London E15",51.534011,-0.007434,9/1/2021,0,0,0,1,1,0,1,1,1,1,flat,510
870000,2 bed flat for sale ,"Eastlight Apartments, London E1",51.51007,-0.068388,9/1/2021,2,0,0,1,1,0,0,2,1,1,flat,511
750000,2 bed flat for sale ,"Watermans Quay, London SW6",51.469238,-0.18408,9/1/2021,2,2,0,0,0,0,0,2,2,0,flat,512
350000,1 bed flat for sale ,"Cornwallis Road, London E17",51.584497,-0.039493,9/1/2021,0,0,0,0,0,0,1,1,0,0,flat,513
290000,2 bed flat for sale ,"26 Ramsey Walk, London N1",51.54544,-0.08936,9/1/2021,2,0,0,1,1,0,0,2,1,1,flat,514
365000,2 bed flat for sale ,"Abbey Road, Barking IG11",51.532294,0.075571,9/1/2021,2,0,0,0,0,0,0,2,0,0,flat,515
310000,3 bed maisonette for sale ,"Lawson Road, Enfield EN3",51.660686,-0.048889,9/1/2021,3,0,0,1,1,0,0,3,1,1,maisonette,516
429950,3 bed end terrace house for sale ,"Westmount Road, London SE9",51.466053,0.05532,9/1/2021,3,0,0,1,1,0,0,3,1,1,end terrace house,517
495000,2 bed flat for sale ,"Crockerton Road, London SW17",51.438438,-0.16551,9/1/2021,2,0,0,0,0,0,0,2,0,0,flat,518
455000,3 bed flat for sale ,"Adenmore Road, London SE6",51.447066,-0.025099,9/1/2021,3,2,0,0,1,0,0,3,2,1,flat,519
660000,4 bed flat for sale ,"Church Street Estate, London NW8",51.522791,-0.171224,9/1/2021,4,0,0,1,1,0,0,4,1,1,flat,520
650000,1 bed flat for sale ,"Cock Lane, London EC1A",51.51733,-0.102664,9/1/2021,0,0,0,1,1,0,1,1,1,1,flat,521
450000,2 bed flat for sale ,"Albert Road, Leyton, London E10",51.564326,-0.004323,9/1/2021,2,0,0,1,1,0,0,2,1,1,flat,522
2250000,2 bed flat for sale ,"Charlesworth House, 48 Stanhope Gardens, London SW7",51.493763,-0.181311,9/1/2021,2,2,0,0,1,0,0,2,2,1,flat,523
4e+05,2 bed flat for sale ,"Golderton, Prince Of Wales Close, Hendon NW4",51.590232,-0.224639,9/1/2021,2,2,0,0,0,0,0,2,2,0,flat,524
375000,2 bed flat for sale ,"Lancaster Road, London SE25",51.40392,-0.075021,9/1/2021,2,0,0,1,1,0,0,2,1,1,flat,525
885000,4 bed detached house for sale ,"Sydney Road, London N8",51.588426,-0.106149,9/1/2021,4,2,0,0,1,0,0,4,2,1,detached house,526
725000,3 bed terraced house for sale ,"Scrutton Close, London SW12",51.447545,-0.134045,9/1/2021,3,0,0,1,0,0,0,3,1,0,terraced house,527
439999,3 bed terraced house for sale ,"Hoe Lane, Enfield EN1",51.665145,-0.059314,9/1/2021,3,0,0,1,0,2,0,3,1,2,terraced house,528
725000,2 bed flat for sale ,"Penthouse Apartment, Wickliffe Avenue, Finchley N3",51.595745,-0.207822,9/1/2021,2,2,882,0,1,0,0,2,2,1,flat,529
575000,2 bed flat for sale ,"Penthouse Apartment, Wickliffe Avenue, Finchley N3",51.595779,-0.208114,9/1/2021,2,2,688,0,1,0,0,2,2,1,flat,530
675000,2 bed flat for sale ,"Penthouse Apartment, Wickliffe Avenue, Finchley N3",51.595798,-0.208221,9/1/2021,2,2,774,0,1,0,0,2,2,1,flat,531
625000,2 bed flat for sale ,"Penthouse Apartment, Wickliffe Avenue, Finchley N3",51.595779,-0.208194,9/1/2021,2,2,764,0,1,0,0,2,2,1,flat,532
299950,3 bed flat for sale ,"Greenford Road, Greenford UB6",51.528641,-0.351422,9/1/2021,3,0,0,1,1,0,0,3,1,1,flat,533
225000,2 bed flat for sale ,"Nicola Close, Harrow HA3",51.5997,-0.342381,9/1/2021,2,0,0,1,1,0,0,2,1,1,flat,534
360000,1 bed flat for sale ,"Crofts Street, Wapping E1",51.509215,-0.069332,9/1/2021,0,0,0,1,1,0,1,1,1,1,flat,535
450000,1 bed flat for sale ,"North Pole Road, North Kensington W10",51.520253,-0.225443,9/1/2021,0,0,0,1,1,0,1,1,1,1,flat,536
310000,1 bed flat for sale ,"7 Washington Road, London E18",51.594632,0.016775,9/1/2021,0,0,0,1,1,0,1,1,1,1,flat,537
450000,2 bed property for sale ,"Hawthorn Court, West Hall Road, Richmond, Surrey TW9",51.475133,-0.277926,9/1/2021,2,0,0,1,1,0,0,2,1,1,property,538
525000,5 bed terraced house for sale ,"Fullerton Road, Addiscombe, Croydon CR0",51.383121,-0.081868,9/1/2021,5,2,0,0,0,2,0,5,2,2,terraced house,539
450000,3 bed terraced house for sale ,"Dairsie Road, London SE9",51.462337,0.059853,9/1/2021,3,0,0,1,0,2,0,3,1,2,terraced house,540
2195000,2 bed flat for sale ,"Penthouse Apartment, Steeles Road, Belsize Park NW3",51.544956,-0.160517,9/1/2021,2,2,"1,565",0,0,2,0,2,2,2,flat,541
179000,1 bed flat for sale ,"Leigham Court Road, London SW16",51.43338,-0.118497,9/1/2021,0,0,0,1,0,0,1,1,1,0,flat,542
350000,1 bed flat for sale ,"Doddington Grove, London SE17",51.485968,-0.103558,9/1/2021,0,0,0,1,1,0,1,1,1,1,flat,543
1025000,2 bed flat for sale ,"Harwood Road, London SW6",51.4781,-0.1935,9/1/2021,2,2,980,0,1,0,0,2,2,1,flat,544
1250000,2 bed detached house for sale ,"Hazlitt Road, London W14",51.497661,-0.21314,9/1/2021,2,2,0,0,1,0,0,2,2,1,detached house,545
8e+05,2 bed maisonette for sale ,"Benwell Road, Holloway, Islington, London N7",51.552187,-0.109053,9/1/2021,2,0,0,1,1,0,0,2,1,1,maisonette,546
299995,Studio for sale ,"3 Carlton Drive, London SW15",51.457316,-0.216975,9/1/2021,0,0,0,1,1,0,0,0,1,1,Studio,547
650000,2 bed flat for sale ,"Bluewater House, Smugglers Way, London SW18",51.463147,-0.190259,9/1/2021,2,2,0,0,1,0,0,2,2,1,flat,548
475000,3 bed terraced house for sale ,"Canning Town, London E16",51.522799,0.010976,9/1/2021,3,0,0,1,0,2,0,3,1,2,terraced house,549
369950,2 bed end terrace house for sale ,"Marshall Drive, Hayes UB4",51.522382,-0.416009,9/1/2021,2,0,0,1,0,0,0,2,1,0,end terrace house,550
475000,3 bed terraced house for sale ,"Braemar Avenue, South Croydon, London CR2",51.346638,-0.100184,9/1/2021,3,0,0,1,0,0,0,3,1,0,terraced house,551
143625,2 bed flat for sale ,"Kings Avenue, London SW4",51.449455,-0.130873,9/1/2021,2,2,775,0,0,0,0,2,2,0,flat,552
93750,1 bed flat for sale ,"Kiver Road, London N19",51.563068,-0.124532,9/1/2021,0,0,0,1,1,0,1,1,1,1,flat,553
299950,3 bed flat for sale ,"Cranleigh Gardens, Southall UB1",51.5205,-0.378944,9/1/2021,3,0,0,1,0,0,0,3,1,0,flat,554
4e+05,2 bed flat for sale ,"Runnymede, Colliers Wood, London SW19",51.413342,-0.179287,9/1/2021,2,0,450,1,0,2,0,2,1,2,flat,555
215000,1 bed flat for sale ,"Lamport Close, Woolwich, London SE18",51.491284,0.056556,9/1/2021,0,0,0,1,1,0,1,1,1,1,flat,556
450000,2 bed flat for sale ,"West Carriage House, Woolwich Riverside, London SE18",51.492763,0.071667,9/1/2021,2,2,0,0,1,0,0,2,2,1,flat,557
350000,3 bed terraced house for sale ,"Robinson Road, Dagenham RM10",51.552047,0.149622,9/1/2021,3,0,0,1,1,0,0,3,1,1,terraced house,558
1150000,4 bed property for sale ,"Hillcrest Road, London W3",51.506541,-0.279034,9/1/2021,4,0,0,1,0,2,0,4,1,2,property,559
1600000,3 bed flat for sale ,"The Hall, 23A Grove End Road, St John's Wood NW8",51.530819,-0.177095,9/1/2021,3,2,0,0,0,2,0,3,2,2,flat,560
750000,4 bed terraced house for sale ,"Devon Avenue, Twickenham TW2",51.447486,-0.353945,9/1/2021,4,2,0,0,0,2,0,4,2,2,terraced house,561
475000,2 bed flat for sale ,"Park Road, Bromley BR1",51.407901,0.021654,9/1/2021,2,0,"1,291",1,0,0,0,2,1,0,flat,562
475000,2 bed terraced house for sale ,"Abbotsbury Road, Morden SM4",51.399393,-0.193657,9/1/2021,2,0,0,1,1,0,0,2,1,1,terraced house,563
330000,1 bed flat for sale ,"Grange Park Road, Leyton, London E10",51.565087,-0.014737,9/1/2021,0,0,0,1,1,0,1,1,1,1,flat,564
229950,1 bed flat for sale ,"Gade Close, Hayes UB3",51.51015,-0.407196,9/1/2021,0,0,0,1,0,0,1,1,1,0,flat,565
375000,2 bed flat for sale ,"Westmere Drive, London NW7",51.625523,-0.257912,9/1/2021,2,0,0,1,0,2,0,2,1,2,flat,566
625000,2 bed flat for sale ,"Cavendish Road, London SW12",51.450469,-0.142211,9/1/2021,2,0,773,1,1,0,0,2,1,1,flat,567
585000,2 bed property for sale ,"Elia Street, Islington N1",51.531661,-0.101603,9/1/2021,2,0,645,1,1,0,0,2,1,1,property,568
1150000,3 bed flat for sale ,"Belsize Park Gardens, London NW3",51.547996,-0.167734,9/1/2021,3,2,0,0,0,2,0,3,2,2,flat,569
1045000,3 bed semi-detached house for sale ,"Heath Gardens, Twickenham TW1",51.44484,-0.337321,9/1/2021,3,2,0,0,0,2,0,3,2,2,semi-detached house,570
275000,3 bed flat for sale ,"Chisley Road, Tottenham, London N15",51.577952,-0.07942,9/1/2021,3,0,0,1,1,0,0,3,1,1,flat,571
850000,4 bed semi-detached house for sale ,"Swakeleys Road, Ickenham, Uxbridge UB10",51.564845,-0.456455,9/1/2021,4,0,0,1,1,0,0,4,1,1,semi-detached house,572
1500000,3 bed end terrace house for sale ,"Bassein Park Road, London W12",51.501503,-0.246249,9/1/2021,3,2,0,0,0,2,0,3,2,2,end terrace house,573
135000,2 bed flat for sale ,"Quilters Place, Eastnor Road, Greenwich, Eltham SE9",51.437852,0.074565,9/1/2021,2,0,0,1,0,0,0,2,1,0,flat,574
650000,2 bed flat for sale ,"Courtlands, Sheen Road, Richmond TW10",51.461093,-0.287606,9/1/2021,2,0,0,1,1,0,0,2,1,1,flat,575
340000,1 bed flat for sale ,"Calum Court, Central Purley, Purley CR8",51.338256,-0.115426,9/1/2021,0,0,0,1,1,0,1,1,1,1,flat,576
375000,2 bed flat for sale ,"Firs Close, Forest Hill, London, . SE23",51.444752,-0.044362,9/1/2021,2,0,0,1,1,0,0,2,1,1,flat,577
269999,2 bed flat for sale ,"Butchers Road, London E16",51.511655,0.019983,9/1/2021,2,0,0,1,1,0,0,2,1,1,flat,578
6e+05,2 bed flat for sale ,"Battersea Rise, Battersea, London SW11",51.460833,-0.163474,9/1/2021,2,2,0,0,1,0,0,2,2,1,flat,579
625000,3 bed semi-detached house for sale ,"Cliff End, Purley, Surrey, . CR8",51.335018,-0.11091,9/1/2021,3,0,0,1,1,0,0,3,1,1,semi-detached house,580
5e+05,3 bed semi-detached house for sale ,"Manor Avenue, Hounslow TW4",51.470855,-0.392574,9/1/2021,3,0,0,1,1,0,0,3,1,1,semi-detached house,581
360000,2 bed maisonette for sale ,"Sulby House, Turnham Road, London, .. SE4",51.459019,-0.041391,9/1/2021,2,0,0,1,1,0,0,2,1,1,maisonette,582
8e+05,3 bed flat for sale ,"Bramshaw Road, Victoria Park, London E9",51.54332,-0.0421,9/1/2021,3,2,0,0,1,0,0,3,2,1,flat,583
1e+06,4 bed property for sale ,"Florence Road, New Cross, London SE14",51.474394,-0.02962,9/1/2021,4,0,0,1,1,0,0,4,1,1,property,584
220000,1 bed flat for sale ,"Myers Lane, New Cross, London SE14",51.482589,-0.04806,9/1/2021,0,0,0,1,1,0,1,1,1,1,flat,585
280000,2 bed flat for sale ,"Addiscombe Grove, Croydon CR0",51.374097,-0.090738,9/1/2021,2,0,0,1,1,0,0,2,1,1,flat,586
475000,2 bed flat for sale ,"6 St. Philips Road, Surbiton KT6",51.393138,-0.307469,9/1/2021,2,0,0,1,1,0,0,2,1,1,flat,587
525000,1 bed flat for sale ,"Prince Albert Road, London NW8",51.533168,-0.16688,9/1/2021,0,0,0,1,0,0,1,1,1,0,flat,588
550000,1 bed flat for sale ,"Lillie Road, Fulham, London SW6",51.48531,-0.202159,9/1/2021,0,0,0,1,1,0,1,1,1,1,flat,589
1450000,4 bed semi-detached house for sale ,"Vivienne Close, Twickenham TW1",51.453155,-0.309245,9/1/2021,4,2,0,0,0,3,0,4,2,3,semi-detached house,590
460000,2 bed flat for sale ,"Station Approach, Sydenham, London, England SE26",51.424498,-0.032353,9/1/2021,2,0,0,1,1,0,0,2,1,1,flat,591
5e+05,3 bed end terrace house for sale ,"Highland Road, Bromley, London, England BR1",51.410171,0.006936,9/1/2021,3,0,0,1,1,0,0,3,1,1,end terrace house,592
425000,2 bed flat for sale ,"Sutherland Road, London E17",51.590656,-0.036387,9/1/2021,2,2,0,0,1,0,0,2,2,1,flat,593
1e+06,2 bed flat for sale ,"Sutherland Avenue, Maida Vale W9",51.526502,-0.184527,9/1/2021,2,2,0,0,1,0,0,2,2,1,flat,594
875000,2 bed flat for sale ,"Saffron Hill, Farringdon, London EC1N",51.519882,-0.106972,9/1/2021,2,2,0,0,1,0,0,2,2,1,flat,595
2e+05,1 bed flat for sale ,"High Street, Orpington BR6",51.381004,0.104069,9/1/2021,0,0,0,1,1,0,1,1,1,1,flat,596
225950,1 bed flat for sale ,"Park Lodge Avenue, West Drayton UB7",51.506093,-0.462338,9/1/2021,0,0,0,1,0,0,1,1,1,0,flat,597
375000,3 bed flat for sale ,"Fife Road, London E16",51.515732,0.018261,9/1/2021,3,0,0,1,1,0,0,3,1,1,flat,598
720000,2 bed flat for sale ,"Point Pleasant, London SW18",51.462666,-0.200442,9/1/2021,2,2,0,0,1,0,0,2,2,1,flat,599
720000,3 bed flat for sale ,"Acton Walk, London N20",51.633449,-0.176184,9/1/2021,3,2,"1,168",0,1,0,0,3,2,1,flat,600
975000,3 bed flat for sale ,"Rufford Street, London N1",51.539846,-0.122177,9/1/2021,3,3,0,0,0,2,0,3,3,2,flat,601
499950,2 bed flat for sale ,"Harford House, London W11",51.52066,-0.202351,9/1/2021,2,0,0,1,1,0,0,2,1,1,flat,602
290000,1 bed flat for sale ,"Friars Mead, Isle Of Dogs, London E14",51.493775,-0.010649,9/1/2021,0,0,0,1,1,0,1,1,1,1,flat,603
1100000,3 bed flat for sale ,"Northey Street, Limehouse, London E14",51.509719,-0.034163,9/1/2021,3,2,0,0,1,0,0,3,2,1,flat,604
1750000,4 bed flat for sale ,"Orion Point, Isle Of Dogs, London E14",51.491584,-0.026257,9/1/2021,4,3,0,0,0,2,0,4,3,2,flat,605
4e+05,2 bed maisonette for sale ,"Hastings Road, Canning Town, London E16",51.515392,0.020398,9/1/2021,2,0,0,1,1,0,0,2,1,1,maisonette,606
2600000,5 bed semi-detached house for sale ,"Howards Lane, London SW15",51.460643,-0.230032,9/1/2021,5,4,0,0,0,2,0,5,4,2,semi-detached house,607
2600000,5 bed detached house for sale ,"Woodborough Road, London SW15",51.463771,-0.234705,9/1/2021,5,2,0,0,0,2,0,5,2,2,detached house,608
1575000,2 bed flat for sale ,"Beech Hill, Hadley Wood, Hertfordshire EN4",51.667099,-0.161733,9/1/2021,2,2,"1,528",0,1,0,0,2,2,1,flat,609
7e+05,3 bed detached house for sale ,"Barnfield Avenue, Shirley, Croydon CR0",51.37481,-0.05609,9/1/2021,3,0,0,0,0,0,0,3,0,0,detached house,610
750000,4 bed semi-detached house for sale ,"Oaklands Avenue, Isleworth TW7",51.486301,-0.334975,9/1/2021,4,0,0,1,1,0,0,4,1,1,semi-detached house,611
6e+05,3 bed flat for sale ,"Yeoman Street, London SE8",51.490619,-0.039277,9/1/2021,3,2,0,0,1,0,0,3,2,1,flat,612
575000,1 bed flat for sale ,"Landmark Pinnacle, Canary Wharf E14",51.502738,-0.025424,9/1/2021,0,0,0,1,1,0,1,1,1,1,flat,613
240000,1 bed terraced house for sale ,"Kingfisher Close, St Pauls Cray, Kent BR5",51.396048,0.123534,9/1/2021,0,0,0,1,1,0,1,1,1,1,terraced house,614
750000,5 bed terraced house for sale ,"Lynmouth Road, Walthamstow, London E17",51.578325,-0.037455,9/1/2021,5,3,0,0,0,2,0,5,3,2,terraced house,615
1199950,4 bed semi-detached house for sale ,"Greenhill Road, Harlesden, London NW10",51.538256,-0.255213,9/1/2021,4,3,0,0,0,2,0,4,3,2,semi-detached house,616
157500,1 bed flat for sale ,"Somerset Hall, Creighton Road, Haringey, Haringey N17",51.605963,-0.074142,9/1/2021,0,0,441,1,0,0,1,1,1,0,flat,617
450000,1 bed flat for sale ,"Commercial Road, London E14",51.512502,-0.037844,9/1/2021,0,0,0,1,1,0,1,1,1,1,flat,618
495000,Studio for sale ,"Petty France, Westminster, London SW1H",51.499427,-0.135767,9/1/2021,0,0,0,1,1,0,0,0,1,1,Studio,619
675000,4 bed semi-detached house for sale ,"Simmons Way, Whetstone, London N20",51.63003,-0.160839,9/1/2021,4,2,0,0,0,2,0,4,2,2,semi-detached house,620
460000,3 bed flat for sale ,"Falconry Court, 7 Fairfield South, Kingston Upon Thames KT1",51.407526,-0.299411,9/1/2021,3,0,0,1,1,0,0,3,1,1,flat,621
450000,4 bed terraced house for sale ,"Sheringham Avenue, Romford RM7",51.57221,0.169278,9/1/2021,4,3,0,0,0,2,0,4,3,2,terraced house,622
650000,1 bed flat for sale ,"Shepherds Hill, Highgate, London N6",51.57942,-0.132877,9/1/2021,0,0,0,1,0,2,1,1,1,2,flat,623
765000,5 bed terraced house for sale ,"Thurleston Avenue, London SM4",51.397115,-0.217276,9/1/2021,5,4,0,0,0,2,0,5,4,2,terraced house,624
675000,4 bed terraced house for sale ,"Westmount Close, Worcester Park KT4",51.383308,-0.231982,9/1/2021,4,2,0,0,0,2,0,4,2,2,terraced house,625
92500,1 bed flat for sale ,"Blackhorse Road, Walthamstow E17",51.586884,-0.041873,9/1/2021,0,0,545,1,0,0,1,1,1,0,flat,626
325000,2 bed flat for sale ,"Errol Gardens, New Malden KT3",51.398193,-0.24278,9/1/2021,2,0,0,1,1,0,0,2,1,1,flat,627
875000,4 bed detached house for sale ,"Sovereign Close, Ruislip HA4",51.572798,-0.424962,9/1/2021,4,0,0,1,0,2,0,4,1,2,detached house,628
325000,2 bed flat for sale ,"Montagu Gardens, Wallington SM6",51.36554,-0.142002,9/1/2021,2,2,0,0,1,0,0,2,2,1,flat,629
375000,Studio for sale ,"Courtfield House, Baldwins Gardens, London EC1N",51.519858,-0.111776,9/1/2021,0,0,0,1,0,0,0,0,1,0,Studio,630
675000,3 bed flat for sale ,"Brunel House, 148 Christchurch Way, Greenwich, London SE10",51.490068,0.005084,9/1/2021,3,2,0,0,1,0,0,3,2,1,flat,631
425000,1 bed flat for sale ,"Beacon Point, 12 Dowells Street, Greenwich, London SE10",51.482835,-0.016981,9/1/2021,0,0,0,1,1,0,1,1,1,1,flat,632
475000,2 bed flat for sale ,"Old Road, London SE13",51.457914,0.004334,9/1/2021,2,0,597,1,1,0,0,2,1,1,flat,633
475000,4 bed terraced house for sale ,"Brooklands Gardens, Hornchurch RM11",51.572935,0.21276,9/1/2021,4,0,0,0,1,0,0,4,0,1,terraced house,634
370000,1 bed flat for sale ,"Blackhorse Road, Walthamstow E17",51.586884,-0.041873,9/1/2021,0,0,545,1,0,0,1,1,1,0,flat,635
350000,1 bed flat for sale ,"Champion Hill, London SE5",51.465799,-0.088194,9/1/2021,0,0,0,1,1,0,1,1,1,1,flat,636
325000,1 bed flat for sale ,"Dunstans Road, London SE22",51.453077,-0.06371,9/1/2021,0,0,0,1,1,0,1,1,1,1,flat,637
795000,2 bed flat for sale ,"Portinscale Road, London SW15",51.455163,-0.207692,9/1/2021,2,2,0,0,1,0,0,2,2,1,flat,638
90000,1 bed flat for sale ,"Blackhorse Road, Walthamstow E17",51.586884,-0.041873,9/1/2021,0,0,545,1,0,0,1,1,1,0,flat,639
389000,3 bed flat for sale ,"Church Road, London SE19",51.417407,-0.081197,9/1/2021,3,2,0,0,1,0,0,3,2,1,flat,640
140000,1 bed flat for sale ,"Furmage Street, London SW18",51.449838,-0.190026,9/1/2021,0,0,0,1,1,0,1,1,1,1,flat,641
675000,2 bed flat for sale ,"Leghorn Road, Willesden Junction NW10",51.535327,-0.241052,9/1/2021,2,0,"1,011",1,1,0,0,2,1,1,flat,642
535000,2 bed flat for sale ,"Mapleton Road, London SW18",51.453002,-0.192968,9/1/2021,2,2,766,0,1,0,0,2,2,1,flat,643
572500,1 bed flat for sale ,"Woodberry Down, London N4",51.5712,-0.090933,9/1/2021,0,0,0,1,1,0,1,1,1,1,flat,644
350000,1 bed flat for sale ,"Furmage Street, London SW18",51.449838,-0.190026,9/1/2021,0,0,0,1,1,0,1,1,1,1,flat,645
642000,3 bed maisonette for sale ,"Parkhurst Road, London N7",51.556267,-0.121784,9/1/2021,3,0,0,1,1,0,0,3,1,1,maisonette,646
360000,1 bed flat for sale ,"Blackhorse Road, Walthamstow E17",51.586884,-0.041873,9/1/2021,0,0,545,1,0,0,1,1,1,0,flat,647
389950,2 bed flat for sale ,"Hubbards Close, Uxbridge UB8",51.520637,-0.450488,9/1/2021,2,2,0,0,1,0,0,2,2,1,flat,648
680000,2 bed flat for sale ,"Grove Vale, East Dulwich, London SE22",51.461466,-0.080055,9/1/2021,2,0,0,1,1,0,0,2,1,1,flat,649
750000,4 bed terraced house for sale ,"Cranston Road, Forest Hill SE23",51.437868,-0.041936,9/1/2021,4,0,0,1,0,2,0,4,1,2,terraced house,650
750000,4 bed terraced house for sale ,"Cranston Road, Forest Hill SE23",51.437868,-0.041936,9/1/2021,4,0,0,1,0,2,0,4,1,2,terraced house,651
550000,3 bed semi-detached house for sale ,"Woodford, Green, Essex IG8",51.609351,0.04081,9/1/2021,3,0,0,1,1,0,0,3,1,1,semi-detached house,652
350000,2 bed flat for sale ,"Churchfields, South Woodford, London E18",51.598727,0.028537,9/1/2021,2,0,0,1,1,0,0,2,1,1,flat,653
730000,3 bed maisonette for sale ,"St Mary?S Road, Nunhead SE15",51.469271,-0.053796,9/1/2021,3,0,"1,016",1,1,0,0,3,1,1,maisonette,654
620000,3 bed flat for sale ,"Saffron Central Square, Croydon CR0",51.379658,-0.098326,9/1/2021,3,2,0,0,1,0,0,3,2,1,flat,655
6e+05,4 bed semi-detached house for sale ,"St. Leonards Road, Croydon CR0",51.369961,-0.111297,9/1/2021,4,2,0,0,1,0,0,4,2,1,semi-detached house,656
290000,2 bed flat for sale ,"Croydon Road, London SE20",51.409332,-0.057478,9/1/2021,2,0,0,1,1,0,0,2,1,1,flat,657
4840000,3 bed flat for sale ,"Bondway, London SW8",51.483481,-0.125103,9/1/2021,3,3,0,0,1,0,0,3,3,1,flat,658
6500000,1 bed flat for sale ,"Knightsbridge, London SW1X",51.502034,-0.16153,9/1/2021,0,0,0,1,1,0,1,1,1,1,flat,659
3545000,3 bed flat for sale ,"Bondway, London SW8",51.483481,-0.125103,9/1/2021,3,3,0,0,1,0,0,3,3,1,flat,660
3320000,3 bed flat for sale ,"Bondway, London SW8",51.483481,-0.125103,9/1/2021,3,3,0,0,1,0,0,3,3,1,flat,661
4280000,3 bed flat for sale ,"Bondway, London SW8",51.483481,-0.125103,9/1/2021,3,3,0,0,1,0,0,3,3,1,flat,662
330000,3 bed flat for sale ,"Keele House, Academy Way, Dagenham, Essex RM8",51.549611,0.110095,9/1/2021,3,0,0,1,1,0,0,3,1,1,flat,663
725000,3 bed terraced house for sale ,"Haydons Road, Wimbledon, London SW19",51.41704,-0.1875,9/1/2021,3,0,0,0,0,2,0,3,0,2,terraced house,664
525000,3 bed flat for sale ,"Haydn Avenue, Purley CR8",51.324688,-0.116818,9/1/2021,3,0,0,1,1,0,0,3,1,1,flat,665
1100000,3 bed flat for sale ,"Discovery Dock Apartments East, 3 South Quay Square, London E14",51.501291,-0.018141,9/1/2021,3,3,0,0,1,0,0,3,3,1,flat,666
750000,5 bed terraced house for sale ,"Belgrave Road, Walthamstow, London E17",51.577548,-0.019556,9/1/2021,5,2,0,0,1,0,0,5,2,1,terraced house,667
795000,4 bed property for sale ,"Lawn Avenue, West Drayton UB7",51.50703,-0.481178,9/1/2021,4,2,0,0,0,3,0,4,2,3,property,668
990000,4 bed property for sale ,"Summerlands Avenue, Acton W3",51.511409,-0.269411,9/1/2021,4,2,0,0,0,2,0,4,2,2,property,669
510000,3 bed bungalow for sale ,"Pasley Close, London SE17",51.486399,-0.100245,9/1/2021,3,0,0,0,1,0,0,3,0,1,bungalow,670
4e+05,3 bed maisonette for sale ,"Moody Street, Mile End, London E1",51.526166,-0.04347,9/1/2021,3,0,0,1,1,0,0,3,1,1,maisonette,671
390000,3 bed terraced house for sale ,"Barking, Essex, England IG11",51.531667,0.093652,9/1/2021,3,0,0,1,1,0,0,3,1,1,terraced house,672
475000,3 bed maisonette for sale ,"Lytton Grove, London SW15",51.45532,-0.215295,9/1/2021,3,0,0,1,1,0,0,3,1,1,maisonette,673
5e+05,2 bed flat for sale ,"Digby Street, London E2",51.527328,-0.049728,9/1/2021,2,0,0,1,1,0,0,2,1,1,flat,674
1250000,5 bed detached house for sale ,"Ickenham, Uxbridge UB10",51.562189,-0.467328,9/1/2021,5,2,0,0,0,0,0,5,2,0,detached house,675
475000,2 bed flat for sale ,"Gloucester Road, New Barnet EN5",51.647272,-0.183052,9/1/2021,2,0,0,1,1,0,0,2,1,1,flat,676
439000,1 bed flat for sale ,"Hammersmith Road, London W6",51.493743,-0.218652,9/1/2021,0,0,0,1,1,0,1,1,1,1,flat,677
1500000,5 bed terraced house for sale ,"Tennyson Road, Queen's Park NW6",51.538401,-0.202258,9/1/2021,5,2,0,0,1,0,0,5,2,1,terraced house,678
625000,3 bed semi-detached house for sale ,"Leysdown Road, Mottingham, London SE9",51.435298,0.047325,9/1/2021,3,0,0,1,1,0,0,3,1,1,semi-detached house,679
5850000,4 bed terraced house for sale ,"Ansdell Terrace, London W8",51.499861,-0.188935,9/1/2021,4,3,0,0,0,3,0,4,3,3,terraced house,680
395000,2 bed flat for sale ,"Seymour Court, Winchmore Hill N21",51.639919,-0.11117,9/1/2021,2,0,746,1,1,0,0,2,1,1,flat,681
750000,2 bed flat for sale ,"Coster Avenue, London N4",51.56621998,-0.096520303,9/1/2021,2,2,0,0,1,0,0,2,2,1,flat,682
675000,2 bed flat for sale ,"Netherhall Gardens, London NW3",51.550101,-0.178911,9/1/2021,2,0,0,1,1,0,0,2,1,1,flat,683
3950000,5 bed detached house for sale ,"Park Avenue, Farnborough, Orpington BR6",51.370441,0.05774,9/1/2021,5,4,0,0,0,6,0,5,4,6,detached house,684
145000,1 bed flat for sale ,"Streatham Hill, London SW2",51.44293,-0.12425,9/1/2021,0,0,0,0,1,0,1,1,0,1,flat,685
725000,4 bed terraced house for sale ,"Stanley Road, London N11",51.612308,-0.127791,9/1/2021,4,0,0,1,0,2,0,4,1,2,terraced house,686
440000,2 bed flat for sale ,"Haydn Avenue, Purley CR8",51.324688,-0.116818,9/1/2021,2,0,0,1,1,0,0,2,1,1,flat,687
210000,Studio for sale ,"Westgate House, Hanger Lane W5",51.53104,-0.295601,9/1/2021,0,0,0,1,1,0,0,0,1,1,Studio,688
250000,2 bed flat for sale ,"Saxon House, Little Brights Road, Belvedere DA17",51.496166,0.155444,9/1/2021,2,0,0,1,1,0,0,2,1,1,flat,689
1500000,3 bed flat for sale ,"Swan Yard, Islington N1",51.545413,-0.103896,9/1/2021,3,2,"1,850",0,0,2,0,3,2,2,flat,690
8e+05,2 bed terraced house for sale ,"Sydney Road, London SW20",51.408222,-0.219764,9/1/2021,2,0,0,1,0,2,0,2,1,2,terraced house,691
375000,2 bed flat for sale ,"187 East India Dock Road, London E14",51.511399,-0.012902,9/1/2021,2,2,0,0,1,0,0,2,2,1,flat,692
375000,2 bed flat for sale ,"Davenport Road, London SE6",51.449696,-0.009844,9/1/2021,2,0,0,1,1,0,0,2,1,1,flat,693
875000,3 bed flat for sale ,"Kenyon Mansions, Queens Club Gardens, West Kensington, London W14",51.485909,-0.210796,9/1/2021,3,0,0,1,1,0,0,3,1,1,flat,694
5e+05,1 bed flat for sale ,"Hargwyne Street, London SW9",51.466147,-0.12197,9/1/2021,0,0,0,1,1,0,1,1,1,1,flat,695
1150000,3 bed terraced house for sale ,"St. Ann's Park Road, London SW18",51.452147,-0.184964,9/1/2021,3,2,0,0,1,0,0,3,2,1,terraced house,696
410000,3 bed terraced house for sale ,"Redwood Estate, Heston, Hounslow TW5",51.485999,-0.404696,9/1/2021,3,0,0,1,1,0,0,3,1,1,terraced house,697
229995,1 bed flat for sale ,"Wey House, Northolt, Middlesex UB5",51.530307,-0.377602,9/1/2021,0,0,0,1,1,0,1,1,1,1,flat,698
490000,Studio for sale ,"Landmark Pinnacle, 24 Marsh Wall E14",51.501958,-0.024724,9/1/2021,0,0,0,1,1,0,0,0,1,1,Studio,699
335000,1 bed flat for sale ,"Argyle Road, London N17",51.600926,-0.063305,9/1/2021,0,0,0,1,1,0,1,1,1,1,flat,700
450000,4 bed end terrace house for sale ,"Stanhope Gardens, Dagenham, Essex RM8",51.557122,0.143149,9/1/2021,4,0,0,0,1,0,0,4,0,1,end terrace house,701
5e+05,3 bed end terrace house for sale ,"Kenya Road, London SE7",51.475432,0.037189,9/1/2021,3,2,0,0,1,0,0,3,2,1,end terrace house,702
570000,2 bed flat for sale ,"Caversham Road, London NW9",51.594952,-0.239968,9/1/2021,2,2,0,0,0,0,0,2,2,0,flat,703
325000,1 bed flat for sale ,"72-78, Conington Road, Lewisham SE13",51.467732,-0.013842,9/1/2021,0,0,578,1,1,0,1,1,1,1,flat,704
4995000,5 bed flat for sale ,"Ennismore Gardens, London SW7",51.500217,-0.171314,9/1/2021,5,3,0,0,0,2,0,5,3,2,flat,705
750000,3 bed detached house for sale ,"Imperial Drive, North Harrow HA2",51.578839,-0.36707,9/1/2021,3,0,0,1,0,3,0,3,1,3,detached house,706
450000,3 bed flat for sale ,"Felbridge House, East Dulwich Estate, London SE22",51.462477,-0.080847,9/1/2021,3,0,0,1,1,0,0,3,1,1,flat,707
1200000,4 bed detached house for sale ,"Cumbrae Gardens, Long Ditton, Surbiton KT6",51.380352,-0.312117,9/1/2021,4,2,0,0,0,4,0,4,2,4,detached house,708
875000,1 bed terraced house for sale ,"Benhill Road, Camberwell SE5",51.475966,-0.086862,9/1/2021,0,0,0,1,0,3,1,1,1,3,terraced house,709
999000,2 bed flat for sale ,"South Quay Plaza, Canary Wharf E14",51.500988,-0.017303,9/1/2021,2,2,0,0,1,0,0,2,2,1,flat,710
152000,1 bed flat for sale ,"Waterfall Cottages, London SW19",51.422664,-0.17393,9/1/2021,0,0,0,1,1,0,1,1,1,1,flat,711
460000,2 bed cottage for sale ,"Palace Road, Bromley BR1",51.409889,0.020743,9/1/2021,2,0,0,1,1,0,0,2,1,1,cottage,712
350000,2 bed flat for sale ,"Hazelwood Close, Harrow HA2",51.590092,-0.361715,9/1/2021,2,0,0,1,1,0,0,2,1,1,flat,713
1299999,3 bed end terrace house for sale ,"Archway Road, Highgate, Highgate N6",51.572355,-0.139529,9/1/2021,3,2,0,0,1,0,0,3,2,1,end terrace house,714
495000,4 bed terraced house for sale ,"Church Road, Southall UB2",51.5004,-0.377685,9/1/2021,4,2,0,0,1,0,0,4,2,1,terraced house,715
4e+05,2 bed flat for sale ,"Brisbane Road, London E10",51.559766,-0.011616,9/1/2021,2,2,0,0,1,0,0,2,2,1,flat,716
575000,3 bed semi-detached house for sale ,"Balmoral Road, Hornchurch RM12",51.55507,0.215884,9/1/2021,3,0,0,1,0,2,0,3,1,2,semi-detached house,717
1200000,4 bed semi-detached house for sale ,"Heddon Court Avenue, Cockfosters EN4",51.647775,-0.150176,9/1/2021,4,2,0,0,0,3,0,4,2,3,semi-detached house,718
625000,2 bed flat for sale ,"Tessa Apartments, East Dulwich Grove, East Dulwich, London SE22",51.457983,-0.081511,9/1/2021,2,2,0,0,1,0,0,2,2,1,flat,719
545000,2 bed flat for sale ,"Dowding Drive, London SE9",51.455464,0.032759,9/1/2021,2,2,0,0,1,0,0,2,2,1,flat,720
2700000,2 bed flat for sale ,"Radnor Terrace, London W14",51.495341,-0.20607,9/1/2021,2,3,0,0,1,0,0,2,3,1,flat,721
1e+06,6 bed semi-detached house for sale ,"Vera Avenue, London N21",51.642799,-0.100882,9/1/2021,6,2,"2,534",0,0,2,0,6,2,2,semi-detached house,722
417000,1 bed flat for sale ,"Ivy House, Verdo, Kew Bridge, Brentford TW8",51.490687,-0.286911,9/1/2021,0,0,0,1,1,0,1,1,1,1,flat,723
6e+05,4 bed terraced house for sale ,"Pegwell Street, Plumstead, London SE18",51.477596,0.087344,9/1/2021,4,2,0,0,0,2,0,4,2,2,terraced house,724
995000,3 bed flat for sale ,"Water Gardens Square, London SE16",51.498319,-0.045823,9/1/2021,3,4,0,0,1,0,0,3,4,1,flat,725
425000,2 bed flat for sale ,"Hull Close, London SE16",51.502275,-0.042967,9/1/2021,2,0,0,1,1,0,0,2,1,1,flat,726
675000,2 bed flat for sale ,"Water Gardens Square, London SE16",51.498943,-0.045954,9/1/2021,2,2,0,0,1,0,0,2,2,1,flat,727
550000,2 bed flat for sale ,"William Square, London SE16",51.506829,-0.037411,9/1/2021,2,2,0,0,1,0,0,2,2,1,flat,728
560000,2 bed flat for sale ,"Pell Street, London SE8",51.491639,-0.038593,9/1/2021,2,2,0,0,1,0,0,2,2,1,flat,729
435000,2 bed flat for sale ,"Great Dover Street, London SE1",51.498897,-0.090919,9/1/2021,2,0,0,1,1,0,0,2,1,1,flat,730
1100000,2 bed flat for sale ,"Rushworth Street, London SE1",51.501713,-0.102472,9/1/2021,2,2,0,0,1,0,0,2,2,1,flat,731
220000,1 bed flat for sale ,"Greenslade Road, Barking, Essex IG11",51.538042,0.088695,9/1/2021,0,0,0,1,1,0,1,1,1,1,flat,732
460000,3 bed terraced house for sale ,"Chester Road, Ilford, Essex IG3",51.568388,0.102539,9/1/2021,3,0,0,1,1,0,0,3,1,1,terraced house,733
435000,2 bed flat for sale ,"Southwell Road, London SE5",51.466499,-0.098135,9/1/2021,2,0,0,1,0,2,0,2,1,2,flat,734
1099000,3 bed flat for sale ,"Ranelagh Gardens, London SW6",51.467332,-0.206779,9/1/2021,3,2,"1,195",0,1,0,0,3,2,1,flat,735
145500,1 bed flat for sale ,"Greenslade Road, Barking, Essex IG11",51.538042,0.088695,9/1/2021,0,0,0,1,1,0,1,1,1,1,flat,736
285000,2 bed flat for sale ,"1A Pollard Road, Morden SM4",51.393098,-0.17592,9/1/2021,2,2,604,0,1,0,0,2,2,1,flat,737
425000,3 bed terraced house for sale ,"Polperro Close, Orpington BR6",51.383201,0.092428,9/1/2021,3,0,0,0,0,0,0,3,0,0,terraced house,738
450000,2 bed flat for sale ,"Sutherland Avenue, London W9",51.5233,-0.19414,9/1/2021,2,0,0,1,1,0,0,2,1,1,flat,739
280000,Studio for sale ,"Metro Central Heights, 119 Newington Causeway, Elephant And Castle, London SE1",51.495925,-0.099646,9/1/2021,0,11,317,0,1,0,0,0,11,1,Studio,740
2190000,8 bed terraced house for sale ,"Moresby Road, London E5",51.566761,-0.058235,9/1/2021,8,3,"4,090",0,0,3,0,8,3,3,terraced house,741
720000,2 bed flat for sale ,"One West Point, North Acton W3",51.522766,-0.258977,9/1/2021,2,2,0,0,1,0,0,2,2,1,flat,742
330000,2 bed flat for sale ,"Idmiston Road, Worcester Park KT4",51.38463,-0.250461,9/1/2021,2,0,0,1,1,0,0,2,1,1,flat,743
699950,3 bed flat for sale ,"Green Apartments, Chiswick High Road, London W4",51.493011,-0.263971,9/1/2021,3,0,0,1,1,0,0,3,1,1,flat,744
245000,2 bed flat for sale ,"Roosevelt Way, Dagenham RM10",51.540951,0.176034,9/1/2021,2,0,0,1,1,0,0,2,1,1,flat,745
550000,3 bed semi-detached bungalow for sale ,"The Bramblings, London E4",51.61663,0.005921,9/1/2021,3,0,0,1,0,2,0,3,1,2,semi-detached bungalow,746
395000,1 bed flat for sale ,"East Dulwich Road, London SE22",51.4617,-0.075303,9/1/2021,0,0,0,1,0,0,1,1,1,0,flat,747
325000,2 bed maisonette for sale ,"Bluebell Close, Wallington SM6",51.38212,-0.153708,9/1/2021,2,0,0,1,1,0,0,2,1,1,maisonette,748
410000,2 bed flat for sale ,"Wightman Road, London N8",51.586186,-0.108251,9/1/2021,2,0,0,1,1,0,0,2,1,1,flat,749
1200000,2 bed flat for sale ,"Asquith House, West End Gate, Marylebone W2",51.520752,-0.171963,9/1/2021,2,2,0,0,1,0,0,2,2,1,flat,750
8e+05,2 bed penthouse for sale ,"High Road, North Finchley, London N12",51.613499,-0.175619,9/1/2021,2,2,0,0,1,0,0,2,2,1,penthouse,751
209950,3 bed flat for sale ,"Bilsby Lodge, Chalklands, Wembley HA9",51.562753,-0.267462,9/1/2021,3,0,0,1,1,0,0,3,1,1,flat,752
250000,Studio for sale ,"Harringay Road, London N15",51.58649,-0.098536,9/1/2021,0,0,0,1,1,0,0,0,1,1,Studio,753
315000,2 bed maisonette for sale ,"The Larches, Hillingdon UB10",51.535751,-0.450956,9/1/2021,2,0,0,1,1,0,0,2,1,1,maisonette,754
660000,4 bed semi-detached house for sale ,"Rochford Avenue, Chadwell Heath, Romford RM6",51.580785,0.12521,9/1/2021,4,0,0,1,0,2,0,4,1,2,semi-detached house,755
3750000,5 bed semi-detached house for sale ,"Denbigh Gardens, Richmond TW10",51.458938,-0.291462,9/1/2021,5,3,0,0,0,3,0,5,3,3,semi-detached house,756
750000,4 bed semi-detached house for sale ,"Chelmsford Gardens, Cranbrook, Ilford IG1",51.569919,0.054972,9/1/2021,4,2,"1,755",0,0,2,0,4,2,2,semi-detached house,757
2e+06,3 bed semi-detached house for sale ,"Townshend Terrace, Richmond TW9",51.46361,-0.293856,9/1/2021,3,3,0,0,0,3,0,3,3,3,semi-detached house,758
7e+05,4 bed terraced house for sale ,"Chichester Road, Leytonstone E11",51.556292,0.01109,9/1/2021,4,2,0,0,0,0,0,4,2,0,terraced house,759
425000,2 bed flat for sale ,"Elite House, 15 St. Annes Street, Limehouse, London E14",51.512965,-0.029864,9/1/2021,2,2,598,0,1,0,0,2,2,1,flat,760
460000,3 bed flat for sale ,"Redwald Road, London E5",51.554073,-0.038708,9/1/2021,3,2,906,0,1,0,0,3,2,1,flat,761
315000,1 bed property for sale ,"Winterslow House, Flaxman Road SE5",51.469696,-0.100186,9/1/2021,0,0,0,1,1,0,1,1,1,1,property,762
